stop_id,stop_name,stop_lon,stop_lat,location_type,location_id,location_lon,location_lat,location_place,location_name,location_products,distance
202935,Ebertpark/Fichtestr.,8.42054,49.4917,STATION,507997,8420906,49491721,"Ludwigshafen a","Friesenheim Ebertpark/Fichtestraße",TRAM;BUS,50
243005,Landgüterhalle,8.450211,49.496218,STATION,508152,8450310,49496117,Mannheim,Landgüterhalle,BUS,50
211401,Luitpoldhafen,8.452679,49.471596,STATION,508020,8452719,49471531,"Ludwigshafen am Rhein",Luitpoldhafen,TRAM,50
234505,Niederweid,8.456503,49.513238,STATION,506444,8456476,49513160,Mannheim,"Friesenheimer Insel Niederweid",BUS,50
260805,"real Vogelstang",8.55558,49.52058,STATION,510204,8555708,49520684,Mannheim,"Vogelstang real",BUS,50
234506,Niederweid,8.456327,49.513194,STATION,506444,8456476,49513160,Mannheim,"Friesenheimer Insel Niederweid",BUS,50
555505,Eugen-Neter-Schule,8.494274,49.565574,STATION,509688,8493152,49565972,Mannheim,"Blumenau Eugen-Neter-Schule",BUS,100
144602,"Hilsenhain Dell",8.777158,49.513695,STATION,507115,8777319,49513619,Heiligkreuzsteinach,"Hilsenhain Dell",BUS,50
65802,"Ellerstadt West",8.255178,49.462614,STATION,506100,8255001,49462596,,"Ellerstadt West",TRAM,50
555520,Eugen-Neter-Schule,8.492711,49.56596,STATION,509688,8493152,49565972,Mannheim,"Blumenau Eugen-Neter-Schule",BUS,50
246501,Strohmarkt,8.469659,49.486397,STATION,508183,8469978,49486318,Mannheim,Strohmarkt,TRAM;BUS,50
429502,"Schriesheimer Hof",8.754297,49.470321,STATION,510631,8754091,49470336,Wilhelmsfeld,"Schriesheimer Hof",BUS,50
65801,"Ellerstadt West",8.254881,49.462578,STATION,506100,8255001,49462596,,"Ellerstadt West",TRAM,50
246502,Strohmarkt,8.470126,49.48618,STATION,508183,8469978,49486318,Mannheim,Strohmarkt,TRAM;BUS,50
429501,"Schriesheimer Hof",8.754447,49.470209,STATION,510631,8754091,49470336,Wilhelmsfeld,"Schriesheimer Hof",BUS,50
246506,Strohmarkt,8.470116,49.486261,STATION,508183,8469978,49486318,Mannheim,Strohmarkt,TRAM;BUS,50
407711,Hohensachsen,8.655371,49.520176,STATION,507212,8655228,49520504,Weinheim,Hohensachsen,TRAM,50
695702,"Untere Rödt",8.647244,49.402146,STATION,508903,8647200,49402179,Heidelberg,"Pfaffengrund Untere Rödt",BUS;ON_DEMAND,50
407712,Hohensachsen,8.655305,49.520754,STATION,507212,8655228,49520504,Weinheim,Hohensachsen,TRAM,50
122805,Bunsengymnasium,8.675594,49.4169,STATION,508628,8675561,49416922,Heidelberg,"Neuenheim Bunsengymnasium West",BUS,50
122802,Bunsengymnasium,8.676348,49.417658,STATION,518415,8676316,49416949,Heidelberg,"Neuenheim Bunsengymnasium",TRAM;BUS,100
122801,Bunsengymnasium,8.676361,49.416166,STATION,518415,8676316,49416949,Heidelberg,"Neuenheim Bunsengymnasium",TRAM;BUS,100
122804,Bunsengymnasium,8.676752,49.417035,STATION,518417,8676649,49417012,Heidelberg,"Neuenheim Bunsengymnasium",TRAM;BUS,50
122803,Bunsengymnasium,8.67696,49.41692,STATION,518416,8676757,49416886,Heidelberg,"Neuenheim Bunsengymnasium",TRAM;BUS,50
256306,Krähenflügel,8.457486,49.551417,STATION,509465,8457150,49551427,Mannheim,"Sandhofen Krähenflügel",BUS,50
256305,Krähenflügel,8.456694,49.55131,STATION,509465,8457150,49551427,Mannheim,"Sandhofen Krähenflügel",BUS,50
214905,"Bexbacher Straße",8.397213,49.492064,STATION,508948,8397786,49492045,"Ludwigshafen am Rhein","Oggersheim Bexbacher Straße",BUS,50
214906,"Bexbacher Straße",8.398313,49.492066,STATION,508948,8397786,49492045,"Ludwigshafen am Rhein","Oggersheim Bexbacher Straße",BUS,50
673905,"Budapester Straße",8.389165,49.537945,STATION,506682,8389156,49537908,"Ludwigshafen am Rh","Pfingstweide Budapester Straße",BUS,50
119603,"Altes Hallenbad",8.68851,49.40842,STATION,511058,8688506,49408445,Heidelberg,"Altes Hallenbad",TRAM;BUS,50
119604,"Altes Hallenbad",8.68811,49.40839,STATION,511052,8688119,49408400,Heidelberg,"Altes Hallenbad",TRAM;BUS,50
300102,Bildungszentrum,8.8059,49.38412,STATION,508567,8805761,49384057,Neckargemünd,Bildungszentrum,BUS,50
410912,"Weinheim Hauptbahnh.",8.66546,49.55121,STATION,510445,8665637,49551571,Weinheim,Luisenstraße,TRAM,50
410911,"Weinheim Hauptbahnh.",8.665713,49.551813,STATION,510445,8665637,49551571,Weinheim,Luisenstraße,TRAM,50
600505,Akademiestraße,8.456721,49.4924,STATION,508108,8456791,49492386,Mannheim,Akademiestraße,BUS,50
600506,Akademiestraße,8.45682,49.492495,STATION,508108,8456791,49492386,Mannheim,Akademiestraße,BUS,50
77805,"FT Feierabendhaus",8.3588,49.53737,STATION,506338,8359141,49537413,"Frankenthal (Pfalz)",Feierabendhaus,BUS,50
236705,"Platz der Freundsch.",8.53784,49.51845,STATION,511086,8537820,49518446,Mannheim,"Käfertal Platz der Freundschaft",TRAM;BUS,50
259802,Carl-Benz-Bad,8.50583,49.52675,STATION,511179,8505521,49526581,Mannheim,"Käfertal Carl-Benz-Bad",TRAM,50
116102,Hirschgasse,8.715859,49.415935,STATION,508632,8716624,49416176,Heidelberg,"Neuenheim Hirschgasse",BUS,100
259801,Carl-Benz-Bad,8.5053,49.52631,STATION,511179,8505521,49526581,Mannheim,"Käfertal Carl-Benz-Bad",TRAM,50
116101,Hirschgasse,8.716972,49.416292,STATION,508632,8716624,49416176,Heidelberg,"Neuenheim Hirschgasse",BUS,50
62312,"Edingen West",8.60506,49.44644,STATION,506043,8604340,49446928,Edingen-Neckarhausen,"Edingen West",TRAM,100
110802,"Am Bächenbuckel",8.76063,49.42312,STATION,510786,8760321,49422962,Heidelberg,"Ziegelhausen Am Bächenbuckel",BUS,50
110801,"Am Bächenbuckel",8.76088,49.42319,STATION,510786,8760321,49422962,Heidelberg,"Ziegelhausen Am Bächenbuckel",BUS,50
244306,Mühldorferstraße,8.488087,49.476958,STATION,508164,8488064,49477104,Mannheim,Mühldorferstraße,BUS,50
244305,Mühldorferstraße,8.488142,49.477153,STATION,508164,8488064,49477104,Mannheim,Mühldorferstraße,BUS,50
345001,Sparkasse,8.80936,49.434879,STATION,509685,8809384,49434963,"Schönau (Odenwald)",Sparkasse,BUS,50
269605,"G.-Heieck-Str.(Melm)",8.384058,49.510326,STATION,505445,8384050,49510248,"Ludwigshafen am Rh","Oggersheim Georg-Heieck-Straße",BUS,50
131302,"Ziegelhausen Kirche",8.76117,49.417824,STATION,510802,8761255,49417928,Heidelberg,"Ziegelhausen Kirche",BUS,50
131301,"Ziegelhausen Kirche",8.761224,49.417848,STATION,510802,8761255,49417928,Heidelberg,"Ziegelhausen Kirche",BUS,50
62311,"Edingen West",8.60354,49.4474,STATION,506043,8604340,49446928,Edingen-Neckarhausen,"Edingen West",TRAM,100
236711,"Platz der Freundsch.",8.538109,49.518339,STATION,511083,8538170,49518437,Mannheim,"Käfertal Platz der Freundschaft",TRAM;BUS,50
236712,"Platz der Freundsch.",8.539196,49.518522,STATION,507632,8539105,49518671,Mannheim,"Käfertal Platz der Freundschaft",TRAM;BUS,50
608006,"Am Salzkai",8.46081,49.49641,STATION,518889,8460629,49496584,Mannheim,"Am Salzkai",BUS,50
233205,"Rotterdamer S. Nord",8.513912,49.427785,STATION,509228,8513881,49427790,Mannheim,"Rheinau Rotterdamer Straße Nord",BUS,50
608005,"Am Salzkai",8.460415,49.496694,STATION,518889,8460629,49496584,Mannheim,"Am Salzkai",BUS,50
254101,EMBL,8.709849,49.383782,STATION,508252,8709981,49383751,Heidelberg,EMBL,BUS;ON_DEMAND,50
247405,Wasserwerkstraße,8.521487,49.51438,STATION,519345,8521477,49514383,Mannheim,"Käfertal Wasserwerkstraße",BUS,50
111702,Karl-Christ-Str.,8.760792,49.421134,STATION,510801,8760725,49421102,Heidelberg,"Ziegelhausen Karl-Christ-Straße",BUS,50
111701,Karl-Christ-Str.,8.76094,49.421163,STATION,510801,8760725,49421102,Heidelberg,"Ziegelhausen Karl-Christ-Straße",BUS,50
109401,HITS,8.73677,49.41506,STATION,510010,8736940,49414917,Heidelberg,"Schlierbach HITS",BUS;ON_DEMAND,50
251901,Lucas-Cranach-Straße,8.512511,49.478464,STATION,508707,8512749,49478462,Mannheim,"Neuostheim Lucas-Cranach-Straße",TRAM;BUS,50
215805,Notwende,8.37624,49.50901,STATION,508960,8376221,49508998,"Ludwigshafen am Rhein","Oggersheim Notwende",BUS,50
238905,Soldnerstraße,8.518321,49.453093,STATION,508510,8518214,49453121,Mannheim,"Neckarau Soldnerstraße",BUS,50
257206,Brockenweg,8.479963,49.557011,STATION,509689,8479830,49557144,Mannheim,"Blumenau Brockenweg",BUS,50
121502,"Obere Seegasse",8.668881,49.377328,STATION,507496,8668963,49377270,Heidelberg,"Kirchheim Obere Seegasse",BUS,50
238906,Soldnerstraße,8.518041,49.453208,STATION,508510,8518214,49453121,Mannheim,"Neckarau Soldnerstraße",BUS,50
121501,"Obere Seegasse",8.669186,49.377294,STATION,507496,8668963,49377270,Heidelberg,"Kirchheim Obere Seegasse",BUS,50
257205,Brockenweg,8.479813,49.557229,STATION,509689,8479830,49557144,Mannheim,"Blumenau Brockenweg",BUS,50
261705,Eschenhof,8.504224,49.535546,STATION,510281,8504560,49535409,Mannheim,"Waldhof Eschenhof",BUS,50
129001,Bonhoeffer-Straße,8.658899,49.411927,STATION,518593,8659129,49411843,Heidelberg,"Wieblingen Bonhoefferstraße",BUS,50
129002,Bonhoeffer-Straße,8.658109,49.412405,STATION,518593,8659129,49411843,Heidelberg,"Wieblingen Bonhoefferstraße",BUS,100
267006,Otto-Thiele-Platz,8.400854,49.467749,STATION,506503,8400896,49467774,"Ludwigshafen am Rhe","Gartenstadt Otto-Thiele-Platz",BUS,50
245212,Pestalozzischule,8.482164,49.478772,STATION,508174,8482419,49478552,Mannheim,Pestalozzischule,TRAM;BUS,50
210102,Rottstraße,8.448253,49.473756,STATION,508029,8448170,49473832,"Ludwigshafen am Rhein",Rottstraße,TRAM,50
210101,Rottstraße,8.448263,49.474054,STATION,508029,8448170,49473832,"Ludwigshafen am Rhein",Rottstraße,TRAM,50
235405,"Heizkraftwerk Nord",8.454088,49.524065,STATION,510890,8454166,49524064,Mannheim,"Friesenheimer Insel Heizkraftwerk Nord",BUS,50
119201,"St. Vinc.-Krankenhaus",8.697252,49.412018,STATION,506957,8697225,49412050,Heidelberg,"St. Vincentius-Krankenhaus",BUS,50
119202,"St. Vinc.-Krankenhaus",8.697311,49.412085,STATION,506957,8697225,49412050,Heidelberg,"St. Vincentius-Krankenhaus",BUS,50
261706,Eschenhof,8.504585,49.535461,STATION,510281,8504560,49535409,Mannheim,"Waldhof Eschenhof",BUS,50
188601,Georgi-Marktplatz,8.68888,49.3492,STATION,507861,8688910,49349494,"Leimen (Baden)",Georgi-Marktplatz,TRAM;BUS,50
188602,Georgi-Marktplatz,8.68889,49.34955,STATION,507861,8688910,49349494,"Leimen (Baden)",Georgi-Marktplatz,TRAM;BUS,50
554201,Kunsthalle,8.473566,49.4833,STATION,510755,8473807,49483442,Mannheim,Wasserturm,TRAM;BUS,50
132602,Schweizertalstr.,8.753273,49.448227,STATION,510821,8753327,49448285,Heidelberg,"Ziegelhausen Schweizertalstraße",BUS,50
587101,Gewerbegebiet,8.808979,49.426591,STATION,509679,8808925,49426450,"Schönau (Odenwald)",Gewerbegebiet,BUS,50
344101,Krone,8.806398,49.460831,STATION,505107,8806067,49461203,"Schönau (Odenwald)","Altneudorf Krone",BUS,50
132601,Schweizertalstr.,8.753393,49.448432,STATION,510821,8753327,49448285,Heidelberg,"Ziegelhausen Schweizertalstraße",BUS,50
245211,Pestalozzischule,8.482306,49.478551,STATION,508174,8482419,49478552,Mannheim,Pestalozzischule,TRAM;BUS,50
255002,Sandrain,8.51638,49.44277,STATION,509230,8515526,49443206,Mannheim,"Rheinau Sandrain",TRAM,100
202505,"Im Zinkig",8.385986,49.524595,STATION,506033,8386010,49524594,"Ludwigshafen am Rhein","Edigheim Im Zinkig",BUS,50
255001,Sandrain,8.51479,49.44358,STATION,509230,8515526,49443206,Mannheim,"Rheinau Sandrain",TRAM,100
554211,Kunsthalle,8.473033,49.482936,STATION,518347,8473268,49483181,Mannheim,Kunsthalle,TRAM;BUS,50
248702,Friedrichstraße,8.495519,49.45324,STATION,518394,8495274,49453400,Mannheim,"Neckarau Friedrichstraße",TRAM;BUS,50
248701,Friedrichstraße,8.495132,49.453625,STATION,518397,8495022,49453607,Mannheim,"Neckarau Friedrichstraße",TRAM;BUS,50
673936,"Budapester Straße",8.38807,49.53799,STATION,506682,8389156,49537908,"Ludwigshafen am Rh","Pfingstweide Budapester Straße",BUS,100
248706,Friedrichstraße,8.494335,49.453781,STATION,518396,8494357,49453733,Mannheim,"Neckarau Friedrichstraße",TRAM;BUS,50
248705,Friedrichstraße,8.495132,49.453269,STATION,518394,8495274,49453400,Mannheim,"Neckarau Friedrichstraße",TRAM;BUS,50
130411,"Wiebl. Taubenfeld",8.642431,49.428779,STATION,510550,8642589,49428509,Heidelberg,"Wieblingen Taubenfeld",TRAM,50
130412,"Wiebl. Taubenfeld",8.642799,49.428327,STATION,510550,8642589,49428509,Heidelberg,"Wieblingen Taubenfeld",TRAM,50
647201,Heiligenberg,8.70587,49.42213,STATION,510572,8705828,49422001,Heidelberg,"Handschuhsheim Heiligenberg",BUS,50
237602,"Käfertal Süd",8.505361,49.506904,STATION,518246,8505827,49507075,Mannheim,"Käfertal Süd",TRAM;BUS,50
212305,"Maudacher Bruch",8.398117,49.456808,STATION,518135,8398064,49456744,"Ludwigshafen am Rhein","Gartenstadt Maudacher Bruch",BUS,50
212306,"Maudacher Bruch",8.39802,49.456676,STATION,518135,8398064,49456744,"Ludwigshafen am Rhein","Gartenstadt Maudacher Bruch",BUS,50
237601,"Käfertal Süd",8.50633,49.507198,STATION,518247,8505899,49507263,Mannheim,"Käfertal Süd",TRAM;BUS,50
237606,"Käfertal Süd",8.505925,49.5072,STATION,518247,8505899,49507263,Mannheim,"Käfertal Süd",TRAM;BUS,50
237605,"Käfertal Süd",8.506152,49.507329,STATION,518247,8505899,49507263,Mannheim,"Käfertal Süd",TRAM;BUS,50
554206,Kunsthalle,8.472809,49.482326,STATION,518349,8472639,49482453,Mannheim,Kunsthalle,TRAM;BUS,50
117002,Kongresshaus,8.702712,49.412903,STATION,518187,8702044,49412751,Heidelberg,Kongresshaus,BUS,100
117001,Kongresshaus,8.701901,49.412717,STATION,518190,8701999,49412751,Heidelberg,Kongresshaus,BUS,50
554205,Kunsthalle,8.472262,49.482348,STATION,518349,8472639,49482453,Mannheim,Kunsthalle,TRAM;BUS,50
260405,"Schweriner Weg",8.534369,49.506806,STATION,510200,8534646,49506904,Mannheim,"Vogelstang Schweriner Weg",BUS,50
260406,"Schweriner Weg",8.534868,49.506992,STATION,510200,8534646,49506904,Mannheim,"Vogelstang Schweriner Weg",BUS,50
302701,"SAP Arena Süd",8.516469,49.463062,STATION,508173,8516821,49462946,Mannheim,"Neuhermsheim SAP Arena Süd",TRAM,50
134401,Jettaweg,8.74306,49.41323,STATION,509577,8742917,49413218,Heidelberg,"Schlierbach Jettaweg",BUS;ON_DEMAND,50
302702,"SAP Arena Süd",8.517126,49.462804,STATION,508173,8516821,49462946,Mannheim,"Neuhermsheim SAP Arena Süd",TRAM,50
211005,"Val.-Bauer-Sdlg. Süd",8.423769,49.476579,STATION,508034,8424070,49477104,"Ludwigshafen am Rhein","Valentin-Bauer-Siedlung Süd",BUS;ON_DEMAND,100
234105,Max-Born-Straße,8.453792,49.521371,STATION,506439,8454678,49521592,Mannheim,"Friesenheimer Insel Max-Born-Straße",BUS,100
234106,Max-Born-Straße,8.455137,49.52101,STATION,506439,8454678,49521592,Mannheim,"Friesenheimer Insel Max-Born-Straße",BUS,100
555905,Hofrat-Wild-Straße,8.521729,49.450749,STATION,509208,8521702,49450766,Mannheim,"Rheinau Hofrat-Wild-Straße",BUS,50
555906,Hofrat-Wild-Straße,8.521886,49.451762,STATION,509208,8521702,49450766,Mannheim,"Rheinau Hofrat-Wild-Straße",BUS,150
125901,Steinhofweg,8.646241,49.394187,STATION,509032,8646652,49394215,Heidelberg,"Pfaffengrund Steinhofweg",BUS;ON_DEMAND,50
144202,"Abzw. Bärsbach",8.772288,49.497947,STATION,506981,8772132,49497888,Heiligkreuzsteinach,"Abzw. Bärsbach",BUS,50
574201,"Dossenheim Nord",8.667348,49.452844,STATION,513277,8667219,49453085,,"Dossenheim Nord",TRAM,50
574202,"Dossenheim Nord",8.667083,49.453463,STATION,513277,8667219,49453085,,"Dossenheim Nord",TRAM,50
248302,"Dannstadter Straße",8.509332,49.446039,STATION,518392,8509387,49446110,Mannheim,"Neckarau Dannstadter Straße",TRAM,50
248301,"Dannstadter Straße",8.50896,49.44634,STATION,518392,8509387,49446110,Mannheim,"Neckarau Dannstadter Straße",TRAM,50
204706,"Leininger Straße",8.402572,49.459398,STATION,518134,8402568,49459396,"Ludwigshafen am Rhei","Gartenstadt Leininger Straße",BUS,50
204705,"Leininger Straße",8.402993,49.458771,STATION,518133,8402990,49458784,"Ludwigshafen am Rhei","Gartenstadt Leininger Straße",BUS,50
240805,"Groß-Gerauer Straße",8.442349,49.548821,STATION,509787,8442273,49548784,Mannheim,"Sandhofen Groß-Gerauer Straße",BUS,50
246105,"MA Völklinger Straße",8.517112,49.505562,STATION,519342,8517252,49505564,Mannheim,"Käfertal Völklinger Straße",BUS,50
614301,Herrenmühle,8.716749,49.413672,STATION,506948,8716687,49413704,Heidelberg,Herrenmühle,BUS,50
614302,Herrenmühle,8.717692,49.414058,STATION,506948,8716687,49413704,Heidelberg,Herrenmühle,BUS,100
890305,"Gorxheimer Straße",8.543208,49.517569,STATION,506639,8543195,49517493,Mannheim,"Käfertal Gorxheimer Straße",BUS,50
112602,Louise-Ebert-Zentrum,8.703641,49.373285,STATION,505642,8703680,49373117,Heidelberg,"Boxberg Louise-Ebert-Zentrum",BUS,50
112601,Louise-Ebert-Zentrum,8.703735,49.373004,STATION,505642,8703680,49373117,Heidelberg,"Boxberg Louise-Ebert-Zentrum",BUS,50
641001,Bahofweg,8.701038,49.431522,STATION,511111,8701055,49431547,Heidelberg,"Handschuhsheim Bahofweg",BUS;ON_DEMAND,50
250602,Voltastraße,8.490272,49.461073,STATION,508513,8490204,49461194,Mannheim,"Neckarau Voltastraße",TRAM,50
214505,Niederfeld,8.401331,49.476359,STATION,508797,8401426,49475891,"Ludwigshafen am Rhein",Niederfeld,BUS,100
239802,Bibienastraße,8.48878,49.49455,STATION,508112,8488469,49494651,Mannheim,Bibienastraße,TRAM;BUS,50
250601,Voltastraße,8.489984,49.461609,STATION,508513,8490204,49461194,Mannheim,"Neckarau Voltastraße",TRAM,50
239801,Bibienastraße,8.488359,49.494704,STATION,508112,8488469,49494651,Mannheim,Bibienastraße,TRAM;BUS,50
214506,Niederfeld,8.401605,49.475494,STATION,508797,8401426,49475891,"Ludwigshafen am Rhein",Niederfeld,BUS,50
680605,"Am Sandloch",8.408226,49.448837,STATION,508041,8408654,49448456,"Ludwigshafen am Rhein","Rheingönheim Am Sandloch",BUS,100
587502,"Vorderheubach Mitte",8.776957,49.489896,STATION,510212,8776753,49489923,Heiligkreuzsteinach,"Vorderheubach Mitte",BUS,50
239806,Bibienastraße,8.487982,49.494577,STATION,510663,8487938,49494687,Mannheim,Bibienastraße,TRAM;BUS,50
239805,Bibienastraße,8.48916,49.49449,STATION,508112,8488469,49494651,Mannheim,Bibienastraße,TRAM;BUS,100
680606,"Am Sandloch",8.40867,49.44805,STATION,508041,8408654,49448456,"Ludwigshafen am Rhein","Rheingönheim Am Sandloch",BUS,50
122402,Bergstr.,8.69375,49.413849,STATION,508623,8693926,49413784,Heidelberg,"Neuenheim Bergstraße",BUS,50
122401,Bergstr.,8.694315,49.413745,STATION,508623,8693926,49413784,Heidelberg,"Neuenheim Bergstraße",BUS,50
82305,"FT Schmiedgasse",8.35503,49.53692,STATION,506376,8356202,49537152,"Frankenthal (Pfalz)",Schmiedgasse,BUS,100
259412,"Seckenheim Rathaus",8.56345,49.46683,STATION,518531,8563457,49466902,Mannheim,"Seckenheim Rathaus",TRAM;BUS,50
259411,"Seckenheim Rathaus",8.5625,49.46729,STATION,518530,8563214,49467019,Mannheim,"Seckenheim Rathaus",TRAM;BUS,100
249606,"Neckarau Marktplatz",8.491798,49.453203,STATION,508502,8491867,49453103,Mannheim,"Neckarau Marktplatz",BUS,50
249605,"Neckarau Marktplatz",8.491998,49.45304,STATION,508502,8491867,49453103,Mannheim,"Neckarau Marktplatz",BUS,50
559012,Schafweide,8.479618,49.494477,STATION,508006,8479390,49494660,Mannheim,Schafweide,TRAM,50
113901,"Alte Brücke",8.708735,49.413449,STATION,518141,8708714,49413434,Heidelberg,"Alte Brücke",BUS,50
113902,"Alte Brücke",8.710681,49.41361,STATION,508887,8710871,49413596,Heidelberg,"Alte Brücke",BUS,50
213206,Giulini,8.425044,49.452931,STATION,508149,8425302,49453607,"Ludwigshafen am Rhein","Mundenheim Giulini",TRAM;BUS,100
299901,Melacpass,8.78191,49.39281,STATION,508565,8781580,49392786,Neckargemünd,Melacpass,BUS,50
236305,Habichtplatz,8.508319,49.512981,STATION,518240,8508362,49513142,Mannheim,"Käfertal Habichtplatz",BUS,50
299902,Melacpass,8.78147,49.392871,STATION,508565,8781580,49392786,Neckargemünd,Melacpass,BUS,50
213202,Giulini,8.425188,49.453035,STATION,508149,8425302,49453607,"Ludwigshafen am Rhein","Mundenheim Giulini",TRAM;BUS,100
236306,Habichtplatz,8.508281,49.513038,STATION,518240,8508362,49513142,Mannheim,"Käfertal Habichtplatz",BUS,50
213205,Giulini,8.424495,49.452416,STATION,508149,8425302,49453607,"Ludwigshafen am Rhein","Mundenheim Giulini",TRAM;BUS,150
259407,"Seckenheim Rathaus",8.56374,49.46675,STATION,518531,8563457,49466902,Mannheim,"Seckenheim Rathaus",TRAM;BUS,50
259406,"Seckenheim Rathaus",8.56367,49.4668,STATION,518531,8563457,49466902,Mannheim,"Seckenheim Rathaus",TRAM;BUS,50
384111,"Viernh. Kapellenberg",8.575185,49.529797,STATION,518551,8575592,49529817,Viernheim,Kapellenberg,TRAM,50
384112,"Viernh. Kapellenberg",8.576004,49.529778,STATION,518551,8575592,49529817,Viernheim,Kapellenberg,TRAM,50
259402,"Seckenheim Rathaus",8.56331,49.46686,STATION,518531,8563457,49466902,Mannheim,"Seckenheim Rathaus",TRAM;BUS,50
223005,"Am Herrschaftsweiher",8.329472,49.479541,STATION,505281,8330007,49479801,"Ludwigshafen am Rhe","Ruchheim Am Herrschaftsweiher",BUS,50
259401,"Seckenheim Rathaus",8.56267,49.46731,STATION,518530,8563214,49467019,Mannheim,"Seckenheim Rathaus",TRAM;BUS,50
223006,"Am Herrschaftsweiher",8.330722,49.479934,STATION,505281,8330007,49479801,"Ludwigshafen am Rhe","Ruchheim Am Herrschaftsweiher",BUS,100
263905,"Wallstadt Sportanl.",8.542214,49.500795,STATION,510381,8542314,49500728,Mannheim,"Wallstadt Sportanlagen",BUS,50
213201,Giulini,8.425452,49.453492,STATION,508372,8425508,49453625,"Ludwigshafen am Rhein","Mundenheim Giulini",TRAM;BUS,50
110401,Hirtenaue,8.75983,49.42635,STATION,510799,8759790,49426297,Heidelberg,"Ziegelhausen Hirtenaue",BUS,50
251912,Lucas-Cranach-Straße,8.512939,49.478482,STATION,508707,8512749,49478462,Mannheim,"Neuostheim Lucas-Cranach-Straße",TRAM;BUS,50
62705,"Neckarh. West",8.589528,49.469413,STATION,508579,8589633,49469428,Edingen-Neckarhausen,"Neckarhausen West",BUS,50
62706,"Neckarh. West",8.589802,49.469372,STATION,508579,8589633,49469428,Edingen-Neckarhausen,"Neckarhausen West",BUS,50
263906,"Wallstadt Sportanl.",8.542474,49.500639,STATION,510381,8542314,49500728,Mannheim,"Wallstadt Sportanlagen",BUS,50
206905,Bruchwiesenstraße,8.420092,49.469311,STATION,508002,8420403,49469311,"Ludwigshafen am Rhein",Bruchwiesenstraße,BUS,50
241706,"MA Hauptbahnhof",8.469989,49.480052,STATION,518342,8469825,49480179,Mannheim,Hauptbahnhof,TRAM;BUS,50
247005,Ulmenweg,8.49274,49.50709,STATION,511142,8492730,49507092,Mannheim,Ulmenweg,TRAM;BUS,50
247006,Ulmenweg,8.49323,49.50734,STATION,508188,8493485,49507470,Mannheim,Ulmenweg,TRAM;BUS,50
241705,"MA Hauptbahnhof",8.469337,49.480317,STATION,518342,8469825,49480179,Mannheim,Hauptbahnhof,TRAM;BUS,50
130001,Finanzamt,8.642509,49.422106,STATION,510546,8642571,49421821,Heidelberg,"Wieblingen Finanzamt",BUS;ON_DEMAND,50
130002,Finanzamt,8.642472,49.42222,STATION,510546,8642571,49421821,Heidelberg,"Wieblingen Finanzamt",BUS;ON_DEMAND,50
251505,Harrlach,8.506398,49.478144,STATION,508701,8506501,49478174,Mannheim,"Neuostheim Harrlach",TRAM;BUS,50
215407,Hans-Warsch-Platz,8.37582,49.493201,STATION,518445,8376310,49492656,"Ludwigshafen am Rhei","Oggersheim Hans-Warsch-Platz",TRAM;BUS;ON_DEMAND,100
215406,Hans-Warsch-Platz,8.376452,49.492624,STATION,518445,8376310,49492656,"Ludwigshafen am Rhei","Oggersheim Hans-Warsch-Platz",TRAM;BUS;ON_DEMAND,50
51611,"Dossenheim Süd",8.675291,49.445563,STATION,505924,8675229,49445714,,"Dossenheim Süd",TRAM,50
215402,Hans-Warsch-Platz,8.376098,49.492791,STATION,518445,8376310,49492656,"Ludwigshafen am Rhei","Oggersheim Hans-Warsch-Platz",TRAM;BUS;ON_DEMAND,50
215405,Hans-Warsch-Platz,8.376127,49.492821,STATION,518445,8376310,49492656,"Ludwigshafen am Rhei","Oggersheim Hans-Warsch-Platz",TRAM;BUS;ON_DEMAND,50
121103,"Königsberger Str.",8.666457,49.384265,STATION,518223,8666284,49384273,Heidelberg,"Kirchheim Königsberger Straße",BUS,50
554611,"Im Rott",8.527829,49.507916,STATION,507619,8527851,49507830,Mannheim,"Käfertal Im Rott",TRAM;BUS,50
554612,"Im Rott",8.527988,49.507693,STATION,507619,8527851,49507830,Mannheim,"Käfertal Im Rott",TRAM;BUS,50
121101,"Königsberger Str.",8.666023,49.384281,STATION,518223,8666284,49384273,Heidelberg,"Kirchheim Königsberger Straße",BUS,50
261305,"Am Herrschaftswald",8.507749,49.533825,STATION,510276,8507616,49533970,Mannheim,"Waldhof Am Herrschaftswald",BUS,50
261306,"Am Herrschaftswald",8.507532,49.534066,STATION,510276,8507616,49533970,Mannheim,"Waldhof Am Herrschaftswald",BUS,50
603605,"Pfingstberg Sportan.",8.524846,49.449159,STATION,509199,8524875,49449382,Mannheim,"Rheinau Pfingstberg Sportanlagen",BUS,50
603606,"Pfingstberg Sportan.",8.524526,49.449436,STATION,509199,8524875,49449382,Mannheim,"Rheinau Pfingstberg Sportanlagen",BUS,50
215401,Hans-Warsch-Platz,8.376508,49.492531,STATION,518445,8376310,49492656,"Ludwigshafen am Rhei","Oggersheim Hans-Warsch-Platz",TRAM;BUS;ON_DEMAND,50
235005,Muskatormühle,8.449657,49.531585,STATION,506443,8449608,49531606,Mannheim,"Friesenheimer Insel Muskatormühle",BUS,50
218906,"Rheingönheim Bahnhof",8.409659,49.447107,STATION,507651,8409597,49446964,"Ludwigshafen am Rhein","Rheingönheim Bahnhof",BUS;ON_DEMAND,50
218905,"Rheingönheim Bahnhof",8.40941,49.44679,STATION,507651,8409597,49446964,"Ludwigshafen am Rhein","Rheingönheim Bahnhof",BUS;ON_DEMAND,50
51602,"Dossenheim Süd",8.674996,49.446053,STATION,505924,8675229,49445714,,"Dossenheim Süd",TRAM,50
126801,Haberstr.,8.682777,49.365091,STATION,509330,8682654,49365099,Heidelberg,"Rohrbach Haberstraße",BUS,50
247001,Ulmenweg,8.49301,49.50739,STATION,511175,8492927,49507380,Mannheim,Ulmenweg,TRAM;BUS,50
247002,Ulmenweg,8.49361,49.5077,STATION,511188,8493638,49507722,Mannheim,Ulmenweg,TRAM;BUS,50
665005,Oderstraße,8.35163,49.487748,STATION,515347,8351563,49487649,"Ludwigshafen am Rhein","Oggersheim Oderstraße",BUS,50
262602,"Waldhof Nord",8.481021,49.531195,STATION,518576,8481080,49531058,Mannheim,"Waldhof Nord",TRAM;BUS,50
262601,"Waldhof Nord",8.48143,49.53062,STATION,518578,8481646,49530941,Mannheim,"Waldhof Nord",TRAM;BUS,50
262606,"Waldhof Nord",8.48111,49.5325,STATION,518577,8481188,49532604,Mannheim,"Waldhof Nord",TRAM;BUS,50
262607,"Waldhof Nord",8.481222,49.532701,STATION,518577,8481188,49532604,Mannheim,"Waldhof Nord",TRAM;BUS,50
259450,"Seckenheim Rathaus",8.563188,49.467029,STATION,518530,8563214,49467019,Mannheim,"Seckenheim Rathaus",TRAM;BUS,50
188201,Johannes-Reidel-Str.,8.689236,49.353445,STATION,507865,8689225,49353575,"Leimen (Baden)",Johannes-Reidel-Straße,TRAM;BUS,50
188202,Johannes-Reidel-Str.,8.6892,49.35381,STATION,507865,8689225,49353575,"Leimen (Baden)",Johannes-Reidel-Straße,TRAM;BUS,50
132201,Neckarhelle,8.748146,49.417464,STATION,510815,8748707,49417389,Heidelberg,"Ziegelhausen Neckarhelle",BUS,50
214101,Schillerschule,8.427852,49.460292,STATION,518391,8427648,49460043,"Ludwigshafen am Rhein","Mundenheim Schillerschule",TRAM;BUS,50
214102,Schillerschule,8.427606,49.459735,STATION,518390,8427666,49459890,"Ludwigshafen am Rhein","Mundenheim Schillerschule",TRAM;BUS,50
132202,Neckarhelle,8.749148,49.417354,STATION,510815,8748707,49417389,Heidelberg,"Ziegelhausen Neckarhelle",BUS,50
217602,"Oppau Süd",8.40783,49.51245,STATION,508982,8407908,49512495,"Ludwigshafen am Rhein","Oppau Süd (BASF Q 920)",TRAM,50
207805,Halberg,8.451081,49.476789,STATION,518291,8451110,49476799,"Ludwigshafen am Rhein",Halberg,BUS,50
207806,Halberg,8.451111,49.477152,STATION,518292,8451083,49477158,"Ludwigshafen am Rhein",Halberg,BUS,50
555920,Hofrat-Wild-Straße,8.521958,49.451453,STATION,509208,8521702,49450766,Mannheim,"Rheinau Hofrat-Wild-Straße",BUS,100
202105,Anglerstraße,8.382927,49.53232,STATION,506030,8382855,49532388,"Ludwigshafen am Rhein","Edigheim Anglerstraße",BUS,50
114801,"Schönauer Abtweg",8.759832,49.42072,STATION,510822,8759808,49420715,Heidelberg,"Ziegelhausen Schönauer Abtweg",BUS,50
114802,"Schönauer Abtweg",8.75969,49.42071,STATION,510822,8759808,49420715,Heidelberg,"Ziegelhausen Schönauer Abtweg",BUS,50
217601,"Oppau Süd",8.40795,49.51254,STATION,508982,8407908,49512495,"Ludwigshafen am Rhein","Oppau Süd (BASF Q 920)",TRAM,50
252805,Fr.-Nansen-Weg,8.540878,49.412715,STATION,509204,8540867,49412733,Mannheim,"Rheinau Fridtjof-Nansen-Weg",BUS,50
252806,Fr.-Nansen-Weg,8.540011,49.412842,STATION,509204,8540867,49412733,Mannheim,"Rheinau Fridtjof-Nansen-Weg",BUS,100
554606,"Im Rott",8.52895,49.507624,STATION,506660,8528219,49507398,Mannheim,"Käfertal Im Rott",TRAM;BUS,100
344501,Lindenbach,8.806615,49.420508,STATION,509681,8806768,49420311,"Schönau (Odenwald)","Abzw. Lindenbach",BUS,50
714012,"Großsachsen Süd",8.65596,49.509324,STATION,509481,8655902,49508962,"Hirschberg an der Bergstraße","Großsachsen Süd",TRAM,50
231902,Liebfrauenstraße,8.523669,49.488325,STATION,506252,8523500,49488404,Mannheim,"Feudenheim Liebfrauenstraße",TRAM;BUS,50
714011,"Großsachsen Süd",8.656045,49.508738,STATION,509481,8655902,49508962,"Hirschberg an der Bergstraße","Großsachsen Süd",TRAM,50
258106,M.-Winterhalter-Ring,8.481388,49.551635,STATION,509695,8481322,49551373,Mannheim,"Schönau Max-Winterhalter-Ring",BUS,50
258105,M.-Winterhalter-Ring,8.481247,49.551121,STATION,509695,8481322,49551373,Mannheim,"Schönau Max-Winterhalter-Ring",BUS,50
231905,Liebfrauenstraße,8.523449,49.488439,STATION,506252,8523500,49488404,Mannheim,"Feudenheim Liebfrauenstraße",TRAM;BUS,50
145502,Steigerweg,8.69491,49.39694,STATION,506960,8694807,49396930,Heidelberg,Steigerweg,BUS,50
231906,Liebfrauenstraße,8.523699,49.488391,STATION,506252,8523500,49488404,Mannheim,"Feudenheim Liebfrauenstraße",TRAM;BUS,50
145501,Steigerweg,8.69473,49.39694,STATION,506960,8694807,49396930,Heidelberg,Steigerweg,BUS,50
249106,"Im Morchhof",8.504585,49.456003,STATION,508497,8505126,49456016,Mannheim,"Neckarau Im Morchhof",BUS,50
243806,Marktplatz,8.467956,49.489699,STATION,508160,8467839,49489501,Mannheim,Marktplatz,TRAM;BUS,50
249108,"Im Morchhof",8.505393,49.455902,STATION,508497,8505126,49456016,Mannheim,"Neckarau Im Morchhof",BUS,50
115701,Fr.-Ebert-Platz,8.69986,49.40805,STATION,506920,8698430,49408292,Heidelberg,Friedrich-Ebert-Platz,BUS;ON_DEMAND,150
115702,Fr.-Ebert-Platz,8.698582,49.408381,STATION,506920,8698430,49408292,Heidelberg,Friedrich-Ebert-Platz,BUS;ON_DEMAND,50
286535,Schwanthalerplatz,8.45547,49.46958,STATION,505137,8455487,49469320,"Ludwigshafen am Rhein",Schwanthalerplatz,BUS;ON_DEMAND,50
204202,Sternstraße,8.415441,49.495668,STATION,518122,8415324,49495667,"Ludwigshafen am Rhein","Friesenheim Sternstraße",TRAM;BUS,50
204201,Sternstraße,8.415699,49.495404,STATION,518125,8415719,49495398,"Ludwigshafen am Rhein","Friesenheim Sternstraße",TRAM;BUS,50
125501,"Kurpfalzring Süd",8.640974,49.40272,STATION,509029,8640953,49402539,Heidelberg,"Pfaffengrund Kurpfalzring Süd",BUS;ON_DEMAND,50
125502,"Kurpfalzring Süd",8.64084,49.402535,STATION,509029,8640953,49402539,Heidelberg,"Pfaffengrund Kurpfalzring Süd",BUS;ON_DEMAND,50
263406,Kiesäcker,8.536477,49.498463,STATION,510687,8536480,49498517,Mannheim,"Wallstadt Kiesäcker",TRAM;BUS,50
298501,"Ngmd. Altes Rathaus",8.799676,49.393098,STATION,508551,8799738,49393118,Neckargemünd,"Altes Rathaus",BUS,50
263402,Kiesäcker,8.536587,49.498917,STATION,510377,8536588,49498984,Mannheim,"Wallstadt Kiesäcker",TRAM;BUS,50
263401,Kiesäcker,8.536564,49.49904,STATION,510377,8536588,49498984,Mannheim,"Wallstadt Kiesäcker",TRAM;BUS,50
112201,Buchwaldweg,8.705261,49.3704,STATION,505638,8705316,49370376,Heidelberg,"Boxberg Buchwaldweg",BUS,50
237105,"Käfertal Rathaus",8.517887,49.512068,STATION,518242,8518043,49512396,Mannheim,"Käfertal Rathaus",BUS,50
604101,"MA Rathaus/REM",8.4625,49.489134,STATION,508176,8462472,49489186,Mannheim,Rathaus/Reiss-Museum,TRAM;BUS,50
134001,"Villa Bosch",8.73452,49.41546,STATION,509587,8734414,49415447,Heidelberg,"Schlierbach Villa Bosch",BUS;ON_DEMAND,50
237106,"Käfertal Rathaus",8.517298,49.513128,STATION,507621,8517971,49513448,Mannheim,"Käfertal Malzstraße",BUS,100
604102,"MA Rathaus/REM",8.462325,49.489253,STATION,508176,8462472,49489186,Mannheim,Rathaus/Reiss-Museum,TRAM;BUS,50
604105,"MA Rathaus/REM",8.462821,49.488982,STATION,508417,8462769,49488961,Mannheim,Rathaus/Reiss-Museum,TRAM;BUS,50
308401,Hatschekstr.,8.675125,49.362751,STATION,510208,8675040,49362726,Heidelberg,"Rohrbach Hatschekstraße",BUS,50
604106,"MA Rathaus/REM",8.463582,49.489551,STATION,511136,8463614,49489617,Mannheim,Rathaus/Reiss-Museum,TRAM;BUS,50
231805,"Feudenheim Kreuz",8.537116,49.485933,STATION,506251,8536957,49485932,Mannheim,"Feudenheim Kreuz",BUS,50
231806,"Feudenheim Kreuz",8.536764,49.486011,STATION,506251,8536957,49485932,Mannheim,"Feudenheim Kreuz",BUS,50
249105,"Im Morchhof",8.505313,49.455766,STATION,508497,8505126,49456016,Mannheim,"Neckarau Im Morchhof",BUS,50
283006,"Feuerwache Nord",8.5082,49.51753,STATION,511191,8508515,49517457,Mannheim,"Käfertal Feuerwache Nord",BUS,50
283005,"Feuerwache Nord",8.50861,49.51745,STATION,511191,8508515,49517457,Mannheim,"Käfertal Feuerwache Nord",BUS,50
130901,Fürstendamm,8.749533,49.42863,STATION,518629,8749462,49428635,Heidelberg,"Ziegelhausen Fürstendamm",BUS;ON_DEMAND,50
241601,Handelshafen,8.453985,49.491806,STATION,518323,8453717,49491811,Mannheim,Handelshafen,TRAM,50
61911,"Edingen Bahnhof",8.614477,49.441542,STATION,506039,8614794,49441444,Edingen-Neckarhausen,"Edingen Bahnhof",TRAM;BUS,50
61912,"Edingen Bahnhof",8.615376,49.441147,STATION,506039,8614794,49441444,Edingen-Neckarhausen,"Edingen Bahnhof",TRAM;BUS,100
130902,Fürstendamm,8.749537,49.427964,STATION,518629,8749462,49428635,Heidelberg,"Ziegelhausen Fürstendamm",BUS;ON_DEMAND,100
241602,Handelshafen,8.453653,49.491848,STATION,518323,8453717,49491811,Mannheim,Handelshafen,TRAM,50
264705,"Arbeitstherap. Werks",8.49886,49.46211,STATION,507523,8499031,49460241,Mannheim,"Neckarau Floßwörth",BUS,250
251406,"Am Schäferstock",8.503256,49.47504,STATION,508700,8503795,49474947,Mannheim,"Neuostheim Am Schäferstock",BUS,50
11610,"Bad Dürkheim Bahnhof",8.170652,49.461657,STATION,518079,8170439,49461463,"Bad Dürkheim",Bahnhof,TRAM;BUS;ON_DEMAND,50
219705,Rheingönheim,8.418998,49.443409,STATION,518476,8418955,49443323,"Ludwigshafen am Rhein","Rheingönheim Endstelle",TRAM;BUS;ON_DEMAND,50
251405,"Am Schäferstock",8.50424,49.47485,STATION,508700,8503795,49474947,Mannheim,"Neuostheim Am Schäferstock",BUS,50
61902,"Edingen Bahnhof",8.6154,49.44123,STATION,506039,8614794,49441444,Edingen-Neckarhausen,"Edingen Bahnhof",TRAM;BUS,50
389406,"SAP Arena S-Bahnhof",8.516307,49.460232,STATION,518403,8516461,49460259,Mannheim,"Neuhermsheim SAP Arena S-Bahnhof",TRAM;BUS,50
299862,"Letzter Heller",8.8008,49.393838,STATION,508563,8800772,49393765,Neckargemünd,"Letzter Heller",BUS,50
389405,"SAP Arena S-Bahnhof",8.51642,49.460299,STATION,518403,8516461,49460259,Mannheim,"Neuhermsheim SAP Arena S-Bahnhof",TRAM;BUS,50
61906,"Edingen Bahnhof",8.615289,49.441853,STATION,511242,8615280,49441867,Edingen-Neckarhausen,"Edingen Bahnhof",TRAM;BUS,50
389402,"SAP Arena S-Bahnhof",8.517626,49.459697,STATION,507436,8516938,49459980,Mannheim,"Neuhermsheim SAP Arena S-Bahnhof",TRAM;BUS,100
425602,"Schwetzinger Terrass",8.67164,49.39946,STATION,509749,8671696,49399375,Heidelberg,"Schwetzinger Terrasse",BUS,50
425601,"Schwetzinger Terrass",8.67173,49.39933,STATION,509749,8671696,49399375,Heidelberg,"Schwetzinger Terrasse",BUS,50
389401,"SAP Arena S-Bahnhof",8.517035,49.459961,STATION,507436,8516938,49459980,Mannheim,"Neuhermsheim SAP Arena S-Bahnhof",TRAM;BUS,50
261205,Altrheinstraße,8.471097,49.525699,STATION,510275,8471084,49525538,Mannheim,"Waldhof Altrheinstraße",TRAM;BUS,50
261206,Altrheinstraße,8.471197,49.525592,STATION,510275,8471084,49525538,Mannheim,"Waldhof Altrheinstraße",TRAM;BUS,50
204208,Sternstraße,8.415621,49.495358,STATION,518125,8415719,49495398,"Ludwigshafen am Rhein","Friesenheim Sternstraße",TRAM;BUS,50
204206,Sternstraße,8.415567,49.496022,STATION,518123,8415584,49496000,"Ludwigshafen am Rhein","Friesenheim Sternstraße",TRAM;BUS,50
204205,Sternstraße,8.414716,49.495684,STATION,518124,8414757,49495667,"Ludwigshafen am Rhein","Friesenheim Sternstraße",TRAM;BUS,50
61901,"Edingen Bahnhof",8.614651,49.441523,STATION,506039,8614794,49441444,Edingen-Neckarhausen,"Edingen Bahnhof",TRAM;BUS,50
219701,Rheingönheim,8.419398,49.443634,STATION,518476,8418955,49443323,"Ludwigshafen am Rhein","Rheingönheim Endstelle",TRAM;BUS;ON_DEMAND,50
261201,Altrheinstraße,8.471178,49.525371,STATION,510275,8471084,49525538,Mannheim,"Waldhof Altrheinstraße",TRAM;BUS,50
113512,Kapellenweg,8.68637,49.42505,STATION,506804,8686375,49425057,Heidelberg,"Handschuhsheim Kapellenweg",TRAM,50
261202,Altrheinstraße,8.470917,49.525856,STATION,510275,8471084,49525538,Mannheim,"Waldhof Altrheinstraße",TRAM;BUS,50
113511,Kapellenweg,8.68708,49.42473,STATION,511025,8687103,49424697,Heidelberg,"Handschuhsheim Kapellenweg",TRAM,50
413611,Stahlbad,8.649248,49.545129,STATION,518587,8649115,49545018,Weinheim,Stahlbad,TRAM;BUS;ON_DEMAND,50
413612,Stahlbad,8.649003,49.544926,STATION,518587,8649115,49545018,Weinheim,Stahlbad,TRAM;BUS;ON_DEMAND,50
254905,"Ruhrorter Straße",8.520511,49.421422,STATION,509229,8519778,49421452,Mannheim,"Rheinau Ruhrorter Straße",BUS,100
239306,"Am Oberen Luisenpark",8.493558,49.480348,STATION,511126,8493521,49480386,Mannheim,"Am Oberen Luisenpark",BUS,50
239305,"Am Oberen Luisenpark",8.493574,49.480439,STATION,511126,8493521,49480386,Mannheim,"Am Oberen Luisenpark",BUS,50
254906,"Ruhrorter Straße",8.519132,49.421478,STATION,509229,8519778,49421452,Mannheim,"Rheinau Ruhrorter Straße",BUS,50
752235,Drehbrücke,8.45362,49.47104,STATION,507046,8452854,49470363,"Ludwigshafen am Rhein",Drehbrücke,BUS;ON_DEMAND,100
11601,"Bad Dürkheim Bahnhof",8.170481,49.461467,STATION,518079,8170439,49461463,"Bad Dürkheim",Bahnhof,TRAM;BUS;ON_DEMAND,50
123312,Kußmaulstr.,8.69055,49.419003,STATION,508637,8690690,49418675,Heidelberg,"Neuenheim Kußmaulstraße",TRAM,50
271001,H.-Gutzmann-Schule,8.50078,49.52283,STATION,511186,8501251,49523300,Mannheim,"Käfertal H.-Gutzmann-Schule",TRAM,100
271002,H.-Gutzmann-Schule,8.50128,49.52322,STATION,511186,8501251,49523300,Mannheim,"Käfertal H.-Gutzmann-Schule",TRAM,50
123311,Kußmaulstr.,8.690765,49.418537,STATION,508637,8690690,49418675,Heidelberg,"Neuenheim Kußmaulstraße",TRAM,50
262105,Freyaplatz,8.4931,49.52973,STATION,510283,8492523,49529664,Mannheim,"Waldhof Freyaplatz",BUS,50
262106,Freyaplatz,8.492148,49.529657,STATION,510283,8492523,49529664,Mannheim,"Waldhof Freyaplatz",BUS,50
208602,Kaiser-Wilhelm-Str.,8.448154,49.481364,STATION,508017,8448880,49481797,"Ludwigshafen am Rhein",Kaiser-Wilhelm-Straße,TRAM;BUS,100
133111,Berufsschule,8.660445,49.408579,STATION,506906,8660855,49408535,Heidelberg,Berufsschule,TRAM,50
133112,Berufsschule,8.661295,49.40842,STATION,506906,8660855,49408535,Heidelberg,Berufsschule,TRAM,50
129901,Lerchenbuckel,8.653613,49.416144,STATION,518605,8653304,49416742,Heidelberg,"Wieblingen Lerchenbuckel",BUS,100
129902,Lerchenbuckel,8.653234,49.41685,STATION,518605,8653304,49416742,Heidelberg,"Wieblingen Lerchenbuckel",BUS,50
674020,"Londoner Ring",8.388263,49.543867,STATION,506676,8388904,49543894,"Ludwigshafen am Rhein","Pfingstweide Londoner Ring",BUS,50
242507,Jungbuschbrücke,8.461565,49.499815,STATION,508143,8461771,49499272,Mannheim,Jungbuschbrücke,BUS,100
116602,"S-Bf Altstadt",8.719908,49.415045,STATION,518178,8720498,49415178,Heidelberg,Altstadt,BUS,50
61920,"Edingen Bahnhof",8.615359,49.442237,STATION,511242,8615280,49441867,Edingen-Neckarhausen,"Edingen Bahnhof",TRAM;BUS,50
242505,Jungbuschbrücke,8.461591,49.499347,STATION,508143,8461771,49499272,Mannheim,Jungbuschbrücke,BUS,50
242506,Jungbuschbrücke,8.461707,49.499262,STATION,508143,8461771,49499272,Mannheim,Jungbuschbrücke,BUS,50
61922,"Edingen Bahnhof",8.614209,49.441641,STATION,506039,8614794,49441444,Edingen-Neckarhausen,"Edingen Bahnhof",TRAM;BUS,50
559001,Schafweide,8.479178,49.494829,STATION,508006,8479390,49494660,Mannheim,Schafweide,TRAM,50
219720,Rheingönheim,8.418309,49.443452,STATION,518479,8418757,49443152,"Ludwigshafen am Rhein","Rheingönheim Endstelle",TRAM;BUS;ON_DEMAND,50
238006,Pyramidenstraße,8.464794,49.506619,STATION,510889,8464558,49506625,Mannheim,Pyramidenstraße,BUS,50
238005,Pyramidenstraße,8.464511,49.506709,STATION,510889,8464558,49506625,Mannheim,Pyramidenstraße,BUS,50
674005,"Londoner Ring",8.389412,49.543816,STATION,506676,8388904,49543894,"Ludwigshafen am Rhein","Pfingstweide Londoner Ring",BUS,50
113101,Otto-Hahn-Str.,8.705096,49.365874,STATION,506115,8704875,49365944,Heidelberg,"Emmertsgrund Otto-Hahn-Straße",BUS,50
252305,Carl-Benz-Stadion,8.502026,49.477945,STATION,508021,8502114,49477851,Mannheim,Carl-Benz-Stadion,TRAM;BUS,50
252306,Carl-Benz-Stadion,8.5023,49.477822,STATION,508021,8502114,49477851,Mannheim,Carl-Benz-Stadion,TRAM;BUS,50
216205,"Speyerer Straße",8.367197,49.482176,STATION,508963,8367150,49482138,"Ludwigshafen am Rhein","Oggersheim Speyerer Straße",BUS;ON_DEMAND,50
216206,"Speyerer Straße",8.36714,49.482089,STATION,508963,8367150,49482138,"Ludwigshafen am Rhein","Oggersheim Speyerer Straße",BUS;ON_DEMAND,50
207735,Wilhelm-Hack-Museum,8.44428,49.47956,STATION,511202,8444314,49479523,"Ludwigshafen am Rhein",Wilhelm-Hack-Museum,BUS;ON_DEMAND,50
252301,Carl-Benz-Stadion,8.502208,49.477829,STATION,508021,8502114,49477851,Mannheim,Carl-Benz-Stadion,TRAM;BUS,50
252302,Carl-Benz-Stadion,8.50225,49.47783,STATION,508021,8502114,49477851,Mannheim,Carl-Benz-Stadion,TRAM;BUS,50
210906,Val.-Bauer-Siedlung,8.427155,49.478988,STATION,518314,8425634,49478705,"Ludwigshafen am Rhein",Valentin-Bauer-Siedlung,BUS;ON_DEMAND,150
210905,Val.-Bauer-Siedlung,8.4253,49.47877,STATION,518315,8425445,49478803,"Ludwigshafen am Rhein",Valentin-Bauer-Siedlung,BUS;ON_DEMAND,50
126401,Englerstr.,8.682337,49.36696,STATION,509325,8682294,49366960,Heidelberg,"Rohrbach Englerstraße",BUS,50
117901,"Oberer Fauler Pelz",8.709295,49.409637,STATION,506944,8709037,49409613,Heidelberg,"Oberer Fauler Pelz",BUS,50
117902,"Oberer Fauler Pelz",8.708066,49.409221,STATION,506944,8709037,49409613,Heidelberg,"Oberer Fauler Pelz",BUS,100
205108,Schlesierstraße,8.40519,49.45203,STATION,506512,8405157,49451998,"Ludwigshafen am Rhein","Gartenstadt Schlesierstraße",BUS,50
205107,Schlesierstraße,8.405147,49.451956,STATION,506512,8405157,49451998,"Ludwigshafen am Rhein","Gartenstadt Schlesierstraße",BUS,50
205106,Schlesierstraße,8.404357,49.452447,STATION,506512,8405157,49451998,"Ludwigshafen am Rhein","Gartenstadt Schlesierstraße",BUS,100
328420,Nachtweide,8.405485,49.540546,STATION,508476,8405265,49540964,"Ludwigshafen am Rhein",Nachtweide,BUS,50
255806,"Sandhofen Friedhof",8.452324,49.550197,STATION,509460,8452908,49550358,Mannheim,"Sandhofen Friedhof",BUS,50
255805,"Sandhofen Friedhof",8.453603,49.550528,STATION,509460,8452908,49550358,Mannheim,"Sandhofen Friedhof",BUS,100
752205,Drehbrücke,8.452825,49.470355,STATION,507046,8452854,49470363,"Ludwigshafen am Rhein",Drehbrücke,BUS;ON_DEMAND,50
232705,Elsa-Brändström-Str.,8.56537,49.45021,STATION,510561,8565443,49450200,Mannheim,"Friedrichsfeld Elsa-Brändström-Straße",BUS,50
127702,Saarstr.,8.686615,49.386063,STATION,509342,8686528,49385909,Heidelberg,"Rohrbach Saarstraße",BUS,50
232706,Elsa-Brändström-Str.,8.5656,49.4502,STATION,510561,8565443,49450200,Mannheim,"Friedrichsfeld Elsa-Brändström-Straße",BUS,50
127701,Saarstr.,8.686426,49.385744,STATION,509342,8686528,49385909,Heidelberg,"Rohrbach Saarstraße",BUS,50
114403,Betriebshof,8.674682,49.407427,STATION,518143,8674779,49407717,Heidelberg,Betriebshof,TRAM;BUS,50
286506,Schwanthalerplatz,8.455568,49.469281,STATION,505137,8455487,49469320,"Ludwigshafen am Rhein",Schwanthalerplatz,BUS;ON_DEMAND,50
114404,Betriebshof,8.674832,49.407513,STATION,518143,8674779,49407717,Heidelberg,Betriebshof,TRAM;BUS,50
114405,Betriebshof,8.675556,49.407956,STATION,518144,8675561,49407897,Heidelberg,Betriebshof,TRAM;BUS,50
240306,Dudenstraße,8.501492,49.500264,STATION,508119,8501171,49500557,Mannheim,Dudenstraße,BUS,50
114406,Betriebshof,8.676456,49.407892,STATION,518144,8675561,49407897,Heidelberg,Betriebshof,TRAM;BUS,100
240305,Dudenstraße,8.500978,49.500756,STATION,508119,8501171,49500557,Mannheim,Dudenstraße,BUS,50
114407,Betriebshof,8.674827,49.407622,STATION,518143,8674779,49407717,Heidelberg,Betriebshof,TRAM;BUS,50
243812,Marktplatz,8.468009,49.489604,STATION,508160,8467839,49489501,Mannheim,Marktplatz,TRAM;BUS,50
114408,Betriebshof,8.674817,49.407483,STATION,518143,8674779,49407717,Heidelberg,Betriebshof,TRAM;BUS,50
243811,Marktplatz,8.467565,49.489214,STATION,508160,8467839,49489501,Mannheim,Marktplatz,TRAM;BUS,50
114409,Betriebshof,8.67483,49.40712,STATION,518143,8674779,49407717,Heidelberg,Betriebshof,TRAM;BUS,100
641101,Mühltalstr.,8.69783,49.43099,STATION,511114,8697837,49430963,Heidelberg,"Handschuhsheim Mühltalstraße",BUS;ON_DEMAND,50
250106,Rheingoldhalle,8.469663,49.450061,STATION,508508,8469708,49450056,Mannheim,"Neckarau Rheingoldhalle",TRAM;BUS,50
250105,Rheingoldhalle,8.469911,49.450027,STATION,508508,8469708,49450056,Mannheim,"Neckarau Rheingoldhalle",TRAM;BUS,50
205105,Schlesierstraße,8.403966,49.452587,STATION,506512,8405157,49451998,"Ludwigshafen am Rhein","Gartenstadt Schlesierstraße",BUS,150
208605,Kaiser-Wilhelm-Str.,8.44755,49.48107,STATION,508017,8448880,49481797,"Ludwigshafen am Rhein",Kaiser-Wilhelm-Straße,TRAM;BUS,150
208606,Kaiser-Wilhelm-Str.,8.44895,49.481669,STATION,508017,8448880,49481797,"Ludwigshafen am Rhein",Kaiser-Wilhelm-Straße,TRAM;BUS,50
82405,"FT Altenheim",8.36003,49.53595,STATION,506322,8360175,49535705,"Frankenthal (Pfalz)",Altenheim,BUS;ON_DEMAND,50
250101,Rheingoldhalle,8.469405,49.449923,STATION,508508,8469708,49450056,Mannheim,"Neckarau Rheingoldhalle",TRAM;BUS,50
124201,Studentenwohnheim,8.663111,49.418767,STATION,508647,8662824,49418738,Heidelberg,"Neuenheim Studentenwohnheim",BUS,50
124202,Studentenwohnheim,8.662679,49.418702,STATION,508647,8662824,49418738,Heidelberg,"Neuenheim Studentenwohnheim",BUS,50
115302,"Drei Eichen",8.72367,49.38026,STATION,506917,8723833,49380174,Heidelberg,"Drei Eichen",BUS,50
243406,Gutenbergstraße,8.50392,49.49292,STATION,511204,8503948,49492845,Mannheim,Gutenbergstraße,BUS,50
243405,Gutenbergstraße,8.50406,49.49287,STATION,511204,8503948,49492845,Mannheim,Gutenbergstraße,BUS,50
211805,"Kärntner Straße",8.404059,49.456941,STATION,511094,8404069,49456942,"Ludwigshafen am Rhein","Gartenstadt Kärntner Straße",BUS,50
207306,Feierabendhaus,8.427946,49.492834,STATION,508004,8427971,49492773,"Ludwigshafen am Rhein",Feierabendhaus,BUS,50
253202,"Mülheimer Straße",8.531716,49.427847,STATION,509216,8531518,49428032,Mannheim,"Rheinau Mülheimer Straße",TRAM;BUS,50
234905,Riedwiesen,8.50783,49.417802,STATION,509224,8510079,49417848,Mannheim,"Rheinau Riedwiesen",BUS,200
256710,Sandhofen,8.449941,49.541245,STATION,518499,8449797,49541791,Mannheim,"Sandhofen Endstelle",TRAM;BUS,100
276305,Eisenlohrplatz,8.49393,49.50092,STATION,508365,8494042,49500908,Mannheim,Eisenlohrplatz,BUS,50
253201,"Mülheimer Straße",8.531419,49.428343,STATION,509216,8531518,49428032,Mannheim,"Rheinau Mülheimer Straße",TRAM;BUS,50
211806,"Kärntner Straße",8.403975,49.457198,STATION,506506,8403907,49457193,"Ludwigshafen am Rhein","Gartenstadt Kärntner Straße",BUS,50
127302,Markscheide,8.690491,49.387185,STATION,509337,8690456,49386277,Heidelberg,"Rohrbach Markscheide",TRAM;BUS,150
131802,"Langer Kirschbaum",8.751243,49.459075,STATION,510809,8751286,49458964,Heidelberg,"Ziegelhausen Langer Kirschbaum",BUS,50
131801,"Langer Kirschbaum",8.751355,49.459024,STATION,510809,8751286,49458964,Heidelberg,"Ziegelhausen Langer Kirschbaum",BUS,50
263007,Waldstraße,8.48856,49.52906,STATION,518579,8488505,49529026,Mannheim,"Waldhof Waldstraße",TRAM;BUS,50
429102,Kettenschmiede,8.789011,49.468871,STATION,510628,8788277,49468906,Wilhelmsfeld,Kettenschmiede,BUS,100
207305,Feierabendhaus,8.427923,49.492699,STATION,508004,8427971,49492773,"Ludwigshafen am Rhein",Feierabendhaus,BUS,50
429101,Kettenschmiede,8.787921,49.468983,STATION,510628,8788277,49468906,Wilhelmsfeld,Kettenschmiede,BUS,50
217105,"Oppau Gemeindehaus",8.404467,49.521441,STATION,508976,8404141,49521601,"Ludwigshafen am Rhein","Oppau Gemeindehaus",BUS,50
411812,Händelstraße,8.65638,49.54892,STATION,510438,8655965,49548838,Weinheim,Händelstraße,TRAM;BUS;ON_DEMAND,50
263002,Waldstraße,8.4894,49.52853,STATION,518581,8489296,49529017,Mannheim,"Waldhof Waldstraße",TRAM;BUS,100
328405,Nachtweide,8.405202,49.541306,STATION,508476,8405265,49540964,"Ludwigshafen am Rhein",Nachtweide,BUS,50
263001,Waldstraße,8.49014,49.52827,STATION,518581,8489296,49529017,Mannheim,"Waldhof Waldstraße",TRAM;BUS,150
411811,Händelstraße,8.655534,49.548637,STATION,511236,8655318,49548227,Weinheim,Händelstraße,TRAM;BUS;ON_DEMAND,50
246905,TÜV,8.50437,49.498,STATION,508184,8504308,49497906,Mannheim,TÜV,BUS,50
246906,TÜV,8.50431,49.4978,STATION,508184,8504308,49497906,Mannheim,TÜV,BUS,50
263006,Waldstraße,8.48882,49.52832,STATION,518580,8488577,49528073,Mannheim,"Waldhof Waldstraße",TRAM;BUS,50
241211,Gewerkschaftshaus,8.475352,49.490494,STATION,518333,8475273,49490570,Mannheim,Gewerkschaftshaus,TRAM;BUS,50
263005,Waldstraße,8.48872,49.52846,STATION,518580,8488577,49528073,Mannheim,"Waldhof Waldstraße",TRAM;BUS,50
713501,Speyererhof,8.709393,49.395499,STATION,506956,8709397,49395437,Heidelberg,Speyererhof,BUS;ON_DEMAND,50
13401,"Bad Dürkheim Ost",8.185246,49.463453,STATION,505362,8184786,49463315,,"Bad Dürkheim Ost",TRAM,50
256706,Sandhofen,8.4498,49.541665,STATION,518499,8449797,49541791,Mannheim,"Sandhofen Endstelle",TRAM;BUS,50
256707,Sandhofen,8.449525,49.541985,STATION,518499,8449797,49541791,Mannheim,"Sandhofen Endstelle",TRAM;BUS,50
13402,"Bad Dürkheim Ost",8.18425,49.46342,STATION,505362,8184786,49463315,,"Bad Dürkheim Ost",TRAM,50
256705,Sandhofen,8.449787,49.541715,STATION,518499,8449797,49541791,Mannheim,"Sandhofen Endstelle",TRAM;BUS,50
231405,Feldstraße,8.543633,49.488323,STATION,506248,8543779,49488467,Mannheim,"Feudenheim Feldstraße",BUS,50
231406,Feldstraße,8.543815,49.488679,STATION,506248,8543779,49488467,Mannheim,"Feudenheim Feldstraße",BUS,50
256701,Sandhofen,8.449414,49.542136,STATION,518499,8449797,49541791,Mannheim,"Sandhofen Endstelle",TRAM;BUS,50
117501,"MPI Astronomie",8.72374,49.39649,STATION,506939,8723878,49396489,Heidelberg,"Max-Planck-Institut für Astronomie",BUS;ON_DEMAND,50
264305,"Wallstadt Ost",8.554516,49.497538,STATION,511243,8554486,49497474,Mannheim,"Wallstadt Ost",TRAM;BUS,50
241205,Gewerkschaftshaus,8.475774,49.490228,STATION,508012,8475345,49490058,Mannheim,Gewerkschaftshaus,TRAM;BUS,50
241206,Gewerkschaftshaus,8.475792,49.488356,STATION,518354,8477538,49487676,Mannheim,Nationaltheater,TRAM;BUS,150
241202,Gewerkschaftshaus,8.475889,49.489219,STATION,508012,8475345,49490058,Mannheim,Gewerkschaftshaus,TRAM;BUS,150
410512,Blumenstraße,8.638593,49.544466,STATION,510426,8638211,49544551,Weinheim,Blumenstraße,TRAM;BUS,50
410511,Blumenstraße,8.637617,49.544581,STATION,510426,8638211,49544551,Weinheim,Blumenstraße,TRAM;BUS,50
113102,Otto-Hahn-Str.,8.70476,49.36602,STATION,506115,8704875,49365944,Heidelberg,"Emmertsgrund Otto-Hahn-Straße",BUS,50
251006,Fardelystraße,8.45769,49.50383,STATION,508671,8457995,49504216,Mannheim,Fardelystraße,BUS,50
206007,BASF,8.432367,49.495463,STATION,518268,8432871,49494984,"Ludwigshafen am Rhein","BASF (Tor 1+2)",TRAM;BUS,100
209506,Raschig,8.439649,49.465974,STATION,508025,8439837,49466138,"Ludwigshafen am Rhein",Raschig,BUS,50
206006,BASF,8.43027,49.49586,STATION,511099,8430264,49495856,"Ludwigshafen am Rhein","BASF (Tor 1+2)",TRAM;BUS,50
206005,BASF,8.43091,49.49473,STATION,518269,8430749,49494687,"Ludwigshafen am Rhein","BASF (Tor 1+2)",TRAM;BUS,50
251005,Fardelystraße,8.45853,49.50407,STATION,508671,8457995,49504216,Mannheim,Fardelystraße,BUS,50
206002,BASF,8.432839,49.494998,STATION,518268,8432871,49494984,"Ludwigshafen am Rhein","BASF (Tor 1+2)",TRAM;BUS,50
206001,BASF,8.433686,49.494442,STATION,518268,8432871,49494984,"Ludwigshafen am Rhein","BASF (Tor 1+2)",TRAM;BUS,100
116620,"S-Bf Altstadt",8.71848,49.4145,STATION,506948,8716687,49413704,Heidelberg,Herrenmühle,BUS,200
556311,"Heddesheim Bahnhof",8.594176,49.504812,STATION,511239,8594488,49504953,Heddesheim,"Bahnhof (RNV)",TRAM;BUS;ON_DEMAND,50
125101,"Im Schaffner",8.64226,49.398293,STATION,509025,8642265,49398134,Heidelberg,"Pfaffengrund Im Schaffner",BUS;ON_DEMAND,50
118801,"Im Neulich",8.699441,49.430053,STATION,510814,8699518,49430037,Heidelberg,"Handschuhsheim Im Neulich",BUS;ON_DEMAND,50
244706,Abendakademie,8.470052,49.491827,STATION,508167,8469987,49491883,Mannheim,Abendakademie,TRAM;BUS,50
209505,Raschig,8.44015,49.46631,STATION,508025,8439837,49466138,"Ludwigshafen am Rhein",Raschig,BUS,50
264311,"Wallstadt Ost",8.553354,49.497506,STATION,508142,8553838,49497366,Mannheim,"Wallstadt Ost",TRAM;BUS,50
244701,Abendakademie,8.469762,49.491532,STATION,508167,8469987,49491883,Mannheim,Abendakademie,TRAM;BUS,50
264312,"Wallstadt Ost",8.553981,49.497288,STATION,508142,8553838,49497366,Mannheim,"Wallstadt Ost",TRAM;BUS,50
128601,Teufelskanzelweg,8.73174,49.4172,STATION,509588,8731726,49417173,Heidelberg,"Schlierbach Teufelskanzelweg",BUS;ON_DEMAND,50
103301,"Zgh. Altes Rathaus",8.75911,49.4179,STATION,515095,8758954,49417919,Heidelberg,"Ziegelhausen Altes Rathaus",BUS,50
254505,Pfingstberg,8.529712,49.446204,STATION,509223,8529424,49446092,Mannheim,"Rheinau Pfingstberg",BUS,50
254506,Pfingstberg,8.529174,49.445991,STATION,509223,8529424,49446092,Mannheim,"Rheinau Pfingstberg",BUS,50
233605,"Friedrichsf. Kreuz",8.57656,49.446784,STATION,506425,8576509,49446757,Mannheim,"Friedrichsfeld Friedrichsfelder Kreuz",BUS,50
115301,"Drei Eichen",8.723647,49.380226,STATION,506917,8723833,49380174,Heidelberg,"Drei Eichen",BUS,50
220302,Ruchheim,8.327849,49.478632,STATION,507986,8327688,49478525,"Ludwigshafen am Rhein",Ruchheim,TRAM;BUS;ON_DEMAND,50
220301,Ruchheim,8.32755,49.478501,STATION,507986,8327688,49478525,"Ludwigshafen am Rhein",Ruchheim,TRAM;BUS;ON_DEMAND,50
220306,Ruchheim,8.327653,49.478792,STATION,507969,8327580,49478785,"Ludwigshafen am Rhein",Ruchheim,TRAM;BUS;ON_DEMAND,50
220305,Ruchheim,8.32753,49.478798,STATION,507969,8327580,49478785,"Ludwigshafen am Rhein",Ruchheim,TRAM;BUS;ON_DEMAND,50
257606,Kerschensteinersch.,8.479456,49.546969,STATION,509693,8479641,49546996,Mannheim,"Schönau Kerschensteinerschule",BUS,50
257605,Kerschensteinersch.,8.479818,49.54704,STATION,509693,8479641,49546996,Mannheim,"Schönau Kerschensteinerschule",BUS,50
126012,Brückenstr.,8.69212,49.41573,STATION,510808,8692075,49415564,Heidelberg,"Neuenheim Brückenstraße",TRAM;BUS,50
126011,Brückenstr.,8.692092,49.41524,STATION,510808,8692075,49415564,Heidelberg,"Neuenheim Brückenstraße",TRAM;BUS,50
110901,Moselbrunnenweg,8.76067,49.42257,STATION,510812,8760518,49422198,Heidelberg,"Ziegelhausen Moselbrunnenweg",BUS,50
110902,Moselbrunnenweg,8.760494,49.422134,STATION,510812,8760518,49422198,Heidelberg,"Ziegelhausen Moselbrunnenweg",BUS,50
206009,BASF,8.430622,49.494586,STATION,518269,8430749,49494687,"Ludwigshafen am Rhein","BASF (Tor 1+2)",TRAM;BUS,50
206008,BASF,8.432609,49.494946,STATION,518268,8432871,49494984,"Ludwigshafen am Rhein","BASF (Tor 1+2)",TRAM;BUS,50
242105,Herzogenriedstraße,8.471555,49.508458,STATION,518346,8471416,49508468,Mannheim,Herzogenriedstraße,TRAM;BUS,50
242106,Herzogenriedstraße,8.471474,49.508423,STATION,518346,8471416,49508468,Mannheim,Herzogenriedstraße,TRAM;BUS,50
242101,Herzogenriedstraße,8.470731,49.508769,STATION,518344,8470616,49508315,Mannheim,Herzogenriedstraße,TRAM;BUS,100
242102,Herzogenriedstraße,8.470672,49.508376,STATION,518344,8470616,49508315,Mannheim,Herzogenriedstraße,TRAM;BUS,50
120702,"Kirchheim Friedhof",8.659324,49.375877,STATION,507486,8658725,49375904,Heidelberg,"Kirchheim Friedhof",TRAM,50
235805,"Bensheimer Straße",8.52728,49.51386,STATION,511166,8527464,49513960,Mannheim,"Käfertal Bensheimer Straße",TRAM;BUS,50
210506,Shellhaus,8.446893,49.470378,STATION,518312,8446768,49470354,"Ludwigshafen am Rhein",Shellhaus,BUS;ON_DEMAND,50
210505,Shellhaus,8.446341,49.470011,STATION,518313,8446247,49470021,"Ludwigshafen am Rhein",Shellhaus,BUS;ON_DEMAND,50
80606,"FT Wormser Tor",8.35321,49.53814,STATION,506389,8353307,49538078,"Frankenthal (Pfalz)","Wormser Tor",BUS;ON_DEMAND,50
245605,"St. Hildegard",8.50843,49.50388,STATION,519340,8508820,49503883,Mannheim,"Käfertal St. Hildegard",BUS,50
687706,"Strandbad Blies",8.415165,49.475468,STATION,508483,8415288,49475567,"Ludwigshafen am Rhein","Strandbad Blies",BUS,50
235812,"Bensheimer Straße",8.527912,49.513954,STATION,507613,8527734,49513951,Mannheim,"Käfertal Bensheimer Straße",TRAM;BUS,50
235811,"Bensheimer Straße",8.526364,49.513305,STATION,511163,8526799,49513556,Mannheim,"Käfertal Bensheimer Straße",TRAM;BUS,50
664606,"LU Völklinger Straße",8.40443,49.48856,STATION,515343,8404267,49488611,"Ludwigshafen am Rhe","Friesenheim Völklinger Straße",BUS,50
232306,"Am Rheinauer See",8.529959,49.416267,STATION,509197,8529819,49416212,Mannheim,"Rheinau Am Rheinauer See",BUS,50
664605,"LU Völklinger Straße",8.40419,49.48867,STATION,515343,8404267,49488611,"Ludwigshafen am Rhe","Friesenheim Völklinger Straße",BUS,50
116661,"S-Bf Altstadt",8.720174,49.41509,STATION,518178,8720498,49415178,Heidelberg,Altstadt,BUS,50
687705,"Strandbad Blies",8.41541,49.475622,STATION,508483,8415288,49475567,"Ludwigshafen am Rhein","Strandbad Blies",BUS,50
555005,Neumarkt,8.467771,49.498822,STATION,508170,8467057,49499164,Mannheim,Neumarkt,TRAM;BUS,100
555006,Neumarkt,8.467345,49.498925,STATION,508170,8467057,49499164,Mannheim,Neumarkt,TRAM;BUS,50
114001,"Alter Kohlhof",8.731112,49.388275,STATION,506903,8731088,49388282,Heidelberg,"Alter Kohlhof",BUS,50
114002,"Alter Kohlhof",8.731029,49.38835,STATION,506903,8731088,49388282,Heidelberg,"Alter Kohlhof",BUS,50
127303,Markscheide,8.690511,49.386113,STATION,509337,8690456,49386277,Heidelberg,"Rohrbach Markscheide",TRAM;BUS,50
202901,Ebertpark/Fichtestr.,8.421318,49.491477,STATION,507998,8421203,49491505,"Ludwigshafen a","Friesenheim Ebertpark/Fichtestraße",TRAM;BUS,50
202902,Ebertpark/Fichtestr.,8.420885,49.491761,STATION,507997,8420906,49491721,"Ludwigshafen a","Friesenheim Ebertpark/Fichtestraße",TRAM;BUS,50
202905,Ebertpark/Fichtestr.,8.420919,49.491701,STATION,507997,8420906,49491721,"Ludwigshafen a","Friesenheim Ebertpark/Fichtestraße",TRAM;BUS,50
202906,Ebertpark/Fichtestr.,8.421155,49.491555,STATION,507998,8421203,49491505,"Ludwigshafen a","Friesenheim Ebertpark/Fichtestraße",TRAM;BUS,50
129501,Hermann-Treiber-Str.,8.651891,49.419588,STATION,510540,8651758,49419915,Heidelberg,"Wieblingen Hermann-Treiber-Straße",BUS,50
129502,Hermann-Treiber-Str.,8.651862,49.419827,STATION,510540,8651758,49419915,Heidelberg,"Wieblingen Hermann-Treiber-Straße",BUS,50
258908,Kapellenplatz,8.55568,49.463275,STATION,509719,8555591,49462964,Mannheim,"Seckenheim Kapellenplatz",BUS,50
258906,Kapellenplatz,8.55518,49.46278,STATION,509719,8555591,49462964,Mannheim,"Seckenheim Kapellenplatz",BUS,50
258905,Kapellenplatz,8.555039,49.462604,STATION,509719,8555591,49462964,Mannheim,"Seckenheim Kapellenplatz",BUS,100
337302,Viktoriastraße,8.68235,49.37866,STATION,510760,8682258,49378709,Heidelberg,"Rohrbach Viktoriastraße",BUS,50
256720,Sandhofen,8.449376,49.542273,STATION,518498,8448835,49542321,Mannheim,"Sandhofen Endstelle",TRAM;BUS,50
212705,"Mundenheim Bahnhof",8.421602,49.461573,STATION,518251,8421877,49461913,"Ludwigshafen am Rhein","Mundenheim Bahnhof",BUS,50
212706,"Mundenheim Bahnhof",8.421978,49.461796,STATION,518251,8421877,49461913,"Ludwigshafen am Rhein","Mundenheim Bahnhof",BUS,50
249901,Hochschule,8.484007,49.469975,STATION,518398,8483938,49469697,Mannheim,Hochschule,TRAM;BUS,50
249906,Hochschule,8.48386,49.469421,STATION,518398,8483938,49469697,Mannheim,Hochschule,TRAM;BUS,50
249909,Hochschule,8.48338,49.46822,STATION,518398,8483938,49469697,Mannheim,Hochschule,TRAM;BUS,200
198101,"Pleikartsförster Str",8.662668,49.382585,STATION,508208,8662716,49382880,Heidelberg,"Kirchheim Pleikartsförster Straße",BUS,50
198102,"Pleikartsförster Str",8.662716,49.383144,STATION,508208,8662716,49382880,Heidelberg,"Kirchheim Pleikartsförster Straße",BUS,50
259706,Suebenheim,8.570057,49.45483,STATION,509725,8569983,49455045,Mannheim,"Seckenheim Suebenheim",BUS,50
259705,Suebenheim,8.569994,49.455203,STATION,509725,8569983,49455045,Mannheim,"Seckenheim Suebenheim",BUS,50
254495,"Rheinau Karlsplatz",8.522798,49.438967,STATION,518473,8522691,49438801,Mannheim,"Rheinau Karlsplatz",TRAM;BUS,50
427201,"Hauptbahnhof Süd",8.67259,49.40145,STATION,509750,8673206,49401703,Heidelberg,"Hauptbahnhof Süd",BUS,100
427202,"Hauptbahnhof Süd",8.67322,49.40156,STATION,509750,8673206,49401703,Heidelberg,"Hauptbahnhof Süd",BUS,50
348412,Zentgrafenstraße,8.657469,49.477361,STATION,509612,8657466,49477437,Schriesheim,Zentgrafenstraße,TRAM,50
244206,Moselstraße,8.483479,49.498841,STATION,508162,8483570,49498822,Mannheim,Moselstraße,BUS,50
569805,"Dortmunder Straße",8.515432,49.418748,STATION,509202,8515392,49418764,Mannheim,"Rheinau Dortmunder Straße",BUS,50
244205,Moselstraße,8.483657,49.498804,STATION,508162,8483570,49498822,Mannheim,Moselstraße,BUS,50
569806,"Dortmunder Straße",8.515353,49.418782,STATION,509202,8515392,49418764,Mannheim,"Rheinau Dortmunder Straße",BUS,50
348411,Zentgrafenstraße,8.657703,49.476856,STATION,509612,8657466,49477437,Schriesheim,Zentgrafenstraße,TRAM,100
131402,Heidebuckelweg,8.754156,49.449826,STATION,510798,8754280,49450685,Heidelberg,"Ziegelhausen Heidebuckelweg",BUS,100
202806,Wolfsgrube,8.388433,49.525495,STATION,518085,8388877,49524981,"Ludwigshafen am Rhein","Edigheim Wolfsgrube",BUS,100
131401,Heidebuckelweg,8.754478,49.450535,STATION,510798,8754280,49450685,Heidelberg,"Ziegelhausen Heidebuckelweg",BUS,50
695820,"Freibad Willersinn",8.39769,49.49816,STATION,506459,8404707,49495272,"Ludwigshafen am Rhein","Friesenheim Riedsaumpark",BUS,600
202805,Wolfsgrube,8.388851,49.524991,STATION,518085,8388877,49524981,"Ludwigshafen am Rhein","Edigheim Wolfsgrube",BUS,50
300001,Neckarbrücke,8.790664,49.394485,STATION,518407,8791783,49394521,Neckargemünd,Neckarbrücke,BUS,100
300002,Neckarbrücke,8.791773,49.394581,STATION,518407,8791783,49394521,Neckargemünd,Neckarbrücke,BUS,50
254006,Martinskirche,8.527175,49.417712,STATION,509218,8527257,49417668,Mannheim,"Rheinau Martinskirche",BUS,50
554305,Theresienkrankenhaus,8.480683,49.490029,STATION,508187,8480873,49489950,Mannheim,Theresienkrankenhaus,TRAM;BUS,50
254005,Martinskirche,8.527362,49.417622,STATION,509218,8527257,49417668,Mannheim,"Rheinau Martinskirche",BUS,50
554306,Theresienkrankenhaus,8.480514,49.489112,STATION,510668,8480864,49489869,Mannheim,Theresienkrankenhaus,TRAM;BUS,100
237905,"Zäher Wille",8.494029,49.521719,STATION,507633,8494402,49521628,Mannheim,"Käfertal Zäher Wille",BUS,50
237906,"Zäher Wille",8.494686,49.521564,STATION,507633,8494402,49521628,Mannheim,"Käfertal Zäher Wille",BUS,50
554301,Theresienkrankenhaus,8.480702,49.489768,STATION,510668,8480864,49489869,Mannheim,Theresienkrankenhaus,TRAM;BUS,50
682501,"Am Zapfenberg",8.692581,49.430669,STATION,515222,8692605,49430639,Heidelberg,"Handschuhsheim Am Zapfenberg",BUS;ON_DEMAND,50
212605,Friedenspark,8.436991,49.484533,STATION,508369,8437302,49484467,"Ludwigshafen am Rhein",Friedenspark,BUS;ON_DEMAND,50
554302,Theresienkrankenhaus,8.48108,49.4902,STATION,508187,8480873,49489950,Mannheim,Theresienkrankenhaus,TRAM;BUS,50
212606,Friedenspark,8.437397,49.484419,STATION,508369,8437302,49484467,"Ludwigshafen am Rhein",Friedenspark,BUS;ON_DEMAND,50
117102,Königstuhl,8.72785,49.40337,STATION,506937,8727753,49403303,Heidelberg,Königstuhl,TRAM;BUS;ON_DEMAND,50
247701,Werderstraße,8.476775,49.481104,STATION,508195,8477646,49480862,Mannheim,Werderstraße,TRAM;BUS,100
62206,Schillerstraße,8.619783,49.442925,STATION,506042,8619837,49443089,Edingen-Neckarhausen,"Edingen Schillerstraße",BUS,50
247702,Werderstraße,8.478234,49.480608,STATION,508195,8477646,49480862,Mannheim,Werderstraße,TRAM;BUS,50
247705,Werderstraße,8.476754,49.481089,STATION,508195,8477646,49480862,Mannheim,Werderstraße,TRAM;BUS,100
128201,"Im Grund",8.77127,49.41369,STATION,518507,8770649,49413982,Heidelberg,"Schlierbach Im Grund",BUS,100
128202,"Im Grund",8.770341,49.414136,STATION,518507,8770649,49413982,Heidelberg,"Schlierbach Im Grund",BUS,50
130101,Maltesergasse,8.645727,49.428919,STATION,518609,8645672,49429057,Heidelberg,"Wieblingen Maltesergasse",BUS,50
130102,Maltesergasse,8.645866,49.428874,STATION,518609,8645672,49429057,Heidelberg,"Wieblingen Maltesergasse",BUS,50
211302,Amtsgericht,8.451567,49.471589,STATION,507983,8451352,49471702,"Ludwigshafen am Rhein",Amtsgericht,TRAM,50
211301,Amtsgericht,8.451402,49.471867,STATION,507983,8451352,49471702,"Ludwigshafen am Rhein",Amtsgericht,TRAM,50
555605,"Sonderburger Straße",8.481173,49.536203,STATION,509699,8481098,49535759,Mannheim,"Schönau Sonderburger Straße",BUS,50
555606,"Sonderburger Straße",8.481022,49.535337,STATION,509699,8481098,49535759,Mannheim,"Schönau Sonderburger Straße",BUS,50
118402,Rathaus-Bergbahn,8.711509,49.411172,STATION,507879,8711644,49411303,Heidelberg,Rathaus/Bergbahn,TRAM;BUS,50
118401,Rathaus-Bergbahn,8.71191,49.41143,STATION,507806,8711770,49411375,Heidelberg,Rathaus/Bergbahn,TRAM;BUS,50
695805,"Freibad Willersinn",8.396827,49.497716,STATION,508948,8397786,49492045,"Ludwigshafen am Rhein","Oggersheim Bexbacher Straße",BUS,650
242006,Konrad-Duden-Schule,8.52326,49.440487,STATION,509211,8523617,49440258,Mannheim,"Rheinau Konrad-Duden-Schule",BUS,50
133601,"Kleingemünder S. Ost",8.7656,49.41645,STATION,510735,8766155,49416203,Heidelberg,"Ziegelhausen Kleingemünder Straße Ost",BUS,50
108601,"Bärenbach Nord",8.772751,49.415084,STATION,510789,8772627,49415061,Heidelberg,"Ziegelhausen Bärenbach Nord",BUS;ON_DEMAND,50
242005,Konrad-Duden-Schule,8.523013,49.440532,STATION,509211,8523617,49440258,Mannheim,"Rheinau Konrad-Duden-Schule",BUS,100
122904,Jahnstr.,8.67581,49.4127,STATION,511059,8675561,49412733,Heidelberg,"Neuenheim Jahnstraße",TRAM;BUS,50
680306,Irisstraße,8.371896,49.458969,STATION,506899,8372121,49458883,"Ludwigshafen am Rhein","Maudach Irisstraße",BUS,50
680305,Irisstraße,8.371997,49.458982,STATION,506899,8372121,49458883,"Ludwigshafen am Rhein","Maudach Irisstraße",BUS,50
122901,Jahnstr.,8.676648,49.412797,STATION,518418,8676604,49412859,Heidelberg,"Neuenheim Jahnstraße",TRAM;BUS,50
122903,Jahnstr.,8.675475,49.412857,STATION,511059,8675561,49412733,Heidelberg,"Neuenheim Jahnstraße",TRAM;BUS,50
122902,Jahnstr.,8.676683,49.413158,STATION,511061,8676775,49412975,Heidelberg,"Neuenheim Jahnstraße",TRAM;BUS,50
214805,"Oggersheim Bahnhof",8.381436,49.492882,STATION,507650,8381344,49492818,"Ludwigshafen am Rhein","Oggersheim Bahnhof",BUS,50
203705,Rottstückerweg,8.415621,49.502959,STATION,518111,8415485,49502975,"Ludwigshafen am Rhein","Friesenheim Rottstückerweg",TRAM;BUS,50
203702,Rottstückerweg,8.415464,49.502925,STATION,518111,8415485,49502975,"Ludwigshafen am Rhein","Friesenheim Rottstückerweg",TRAM;BUS,50
132702,"Stift Neuburg",8.735142,49.419329,STATION,510824,8735304,49419196,Heidelberg,"Ziegelhausen Stift Neuburg",BUS,50
132701,"Stift Neuburg",8.735532,49.419226,STATION,510824,8735304,49419196,Heidelberg,"Ziegelhausen Stift Neuburg",BUS,50
203701,Rottstückerweg,8.41608,49.502713,STATION,518110,8416097,49502715,"Ludwigshafen am Rhein","Friesenheim Rottstückerweg",TRAM;BUS,50
587201,Schul/Sportzentrum,8.809293,49.442855,STATION,509686,8809222,49443125,"Schönau (Odenwald)","Abzw. Schul-/Sportzentrum",BUS,50
344001,"Abzweig Klinge",8.807242,49.455799,STATION,505106,8807541,49456223,"Schönau (Odenwald)","Altneudorf Abzw. Klinge",BUS,100
245104,Paradeplatz,8.467501,49.487221,STATION,518358,8466841,49487532,Mannheim,Paradeplatz,TRAM;BUS,100
209010,Marienkirche,8.429863,49.485493,STATION,509062,8429796,49485509,"Ludwigshafen am Rhein",Marienkirche,TRAM;BUS;ON_DEMAND,50
600605,Popakademie,8.45745,49.49633,STATION,511160,8457492,49496341,Mannheim,Popakademie,BUS,50
203706,Rottstückerweg,8.41598,49.502671,STATION,518110,8416097,49502715,"Ludwigshafen am Rhein","Friesenheim Rottstückerweg",TRAM;BUS,50
245103,Paradeplatz,8.466639,49.487599,STATION,518358,8466841,49487532,Mannheim,Paradeplatz,TRAM;BUS,50
600606,Popakademie,8.457635,49.497049,STATION,508134,8457636,49497043,Mannheim,Popakademie,BUS,50
245102,Paradeplatz,8.465612,49.487078,STATION,518359,8465753,49487208,Mannheim,Paradeplatz,TRAM;BUS,50
236605,Maximilianstraße,8.485161,49.482501,STATION,510888,8485413,49482471,Mannheim,Maximilianstraße,BUS,50
236606,Maximilianstraße,8.485739,49.482564,STATION,510888,8485413,49482471,Mannheim,Maximilianstraße,BUS,50
123802,"Pädagog. Hochschule",8.669773,49.41949,STATION,508643,8670518,49419591,Heidelberg,"Neuenheim Pädagogische Hochschule",BUS,100
123801,"Pädagog. Hochschule",8.66996,49.41945,STATION,508643,8670518,49419591,Heidelberg,"Neuenheim Pädagogische Hochschule",BUS,50
262905,Waldpforte,8.49674,49.537981,STATION,510293,8496676,49537934,Mannheim,"Waldhof Waldpforte",BUS,50
262906,Waldpforte,8.496597,49.537902,STATION,510293,8496676,49537934,Mannheim,"Waldhof Waldpforte",BUS,50
209006,Marienkirche,8.431387,49.485506,STATION,518297,8431405,49485518,"Ludwigshafen am Rhein",Marienkirche,TRAM;BUS;ON_DEMAND,50
209005,Marienkirche,8.431398,49.485371,STATION,518297,8431405,49485518,"Ludwigshafen am Rhein",Marienkirche,TRAM;BUS;ON_DEMAND,50
209008,Marienkirche,8.4299,49.48507,STATION,511198,8430327,49485123,"Ludwigshafen am Rhein",Marienkirche,TRAM;BUS;ON_DEMAND,50
248605,"Neckarau Friedhof",8.501146,49.454845,STATION,508490,8501225,49454901,Mannheim,"Neckarau Friedhof",BUS,50
209007,Marienkirche,8.43043,49.485144,STATION,511198,8430327,49485123,"Ludwigshafen am Rhein",Marienkirche,TRAM;BUS;ON_DEMAND,50
129120,"Wieblingen Nord",8.64258,49.43227,STATION,510536,8642050,49432671,Heidelberg,"Wieblingen Nord",BUS,100
248606,"Neckarau Friedhof",8.50152,49.455054,STATION,508490,8501225,49454901,Mannheim,"Neckarau Friedhof",BUS,50
302612,Gerd-Dehof-Platz,8.510041,49.465625,STATION,507880,8509953,49465859,Mannheim,"Neuhermsheim Gerd-Dehof-Platz",TRAM;BUS,50
209002,Marienkirche,8.430418,49.485483,STATION,511197,8430731,49485303,"Ludwigshafen am Rhein",Marienkirche,TRAM;BUS;ON_DEMAND,50
209001,Marienkirche,8.430869,49.485254,STATION,518296,8430821,49485285,"Ludwigshafen am Rhein",Marienkirche,TRAM;BUS;ON_DEMAND,50
245101,Paradeplatz,8.466229,49.487676,STATION,518358,8466841,49487532,Mannheim,Paradeplatz,TRAM;BUS,50
302620,Gerd-Dehof-Platz,8.508166,49.465608,STATION,508668,8508515,49465625,Mannheim,"Neuhermsheim Gerd-Dehof-Platz",TRAM;BUS,50
120301,"S-Bf Kirchh./Rohrb.",8.675299,49.378775,STATION,506739,8675319,49378780,Heidelberg,"Kirchheim Rohrbach",BUS,50
120302,"S-Bf Kirchh./Rohrb.",8.675207,49.378778,STATION,508089,8675238,49378753,Heidelberg,"Kirchheim Rohrbach",BUS,50
120303,"S-Bf Kirchh./Rohrb.",8.677642,49.379202,STATION,509326,8677368,49377864,Heidelberg,"Rohrbach Erlenweg",BUS,150
258402,Schönauschule,8.474136,49.544235,STATION,518526,8474113,49543939,Mannheim,"Schönau Schönauschule",TRAM,50
258401,Schönauschule,8.47411,49.54364,STATION,518526,8474113,49543939,Mannheim,"Schönau Schönauschule",TRAM,50
134901,Schulbergweg,8.76347,49.41855,STATION,510820,8763233,49418585,Heidelberg,"Ziegelhausen Schulbergweg",BUS,50
134902,Schulbergweg,8.7636,49.41854,STATION,510820,8763233,49418585,Heidelberg,"Ziegelhausen Schulbergweg",BUS,50
302601,Gerd-Dehof-Platz,8.509829,49.466051,STATION,507880,8509953,49465859,Mannheim,"Neuhermsheim Gerd-Dehof-Platz",TRAM;BUS,50
302605,Gerd-Dehof-Platz,8.508456,49.465666,STATION,508668,8508515,49465625,Mannheim,"Neuhermsheim Gerd-Dehof-Platz",TRAM;BUS,50
144702,"Hilsenhain Ort",8.771466,49.512033,STATION,507116,8771602,49512010,Heiligkreuzsteinach,"Hilsenhain Ort",BUS,50
234446,Max-Planck-Straße,8.45699,49.51908,STATION,506442,8456917,49519156,Mannheim,"Friesenheimer Insel Max-Planck-Straße",BUS,50
215705,"Mannheimer Tor",8.378823,49.491123,STATION,508959,8378899,49490984,"Ludwigshafen am Rhein","Oggersheim Mannheimer Tor",TRAM;BUS,50
234445,Max-Planck-Straße,8.45688,49.51921,STATION,506442,8456917,49519156,Mannheim,"Friesenheimer Insel Max-Planck-Straße",BUS,50
238806,Diffenebrücke,8.472348,49.516192,STATION,508049,8472153,49516172,Mannheim,"Luzenberg Diffenébrücke",BUS,50
121602,Odenwaldstr.,8.669412,49.379159,STATION,518228,8669431,49379203,Heidelberg,"Kirchheim Odenwaldstraße",TRAM,50
238805,Diffenebrücke,8.472043,49.516108,STATION,508049,8472153,49516172,Mannheim,"Luzenberg Diffenébrücke",BUS,50
215702,"Mannheimer Tor",8.378778,49.491115,STATION,508959,8378899,49490984,"Ludwigshafen am Rhein","Oggersheim Mannheimer Tor",TRAM;BUS,50
215701,"Mannheimer Tor",8.378972,49.49087,STATION,508959,8378899,49490984,"Ludwigshafen am Rhein","Oggersheim Mannheimer Tor",TRAM;BUS,50
260705,"Warnemünder Weg",8.537156,49.507876,STATION,510203,8537118,49507857,Mannheim,"Vogelstang Warnemünder Weg",BUS,50
121601,Odenwaldstr.,8.669159,49.379042,STATION,518228,8669431,49379203,Heidelberg,"Kirchheim Odenwaldstraße",TRAM,50
246401,Pfeifferswörth,8.501169,49.48952,STATION,518367,8501575,49489438,Mannheim,Pfeifferswörth,TRAM;BUS,50
246402,Pfeifferswörth,8.501694,49.489403,STATION,518366,8501620,49489438,Mannheim,Pfeifferswörth,TRAM;BUS,50
246405,Pfeifferswörth,8.50176,49.489775,STATION,518366,8501620,49489438,Mannheim,Pfeifferswörth,TRAM;BUS,50
225506,Albert-Haueisen-Ring,8.383223,49.503687,STATION,505209,8383223,49503659,"Ludwigshafen am R","Oggersheim Albert-Haueisen-Ring",BUS,50
246406,Pfeifferswörth,8.501881,49.490408,STATION,518366,8501620,49489438,Mannheim,Pfeifferswörth,TRAM;BUS,150
225505,Albert-Haueisen-Ring,8.383246,49.50365,STATION,505209,8383223,49503659,"Ludwigshafen am R","Oggersheim Albert-Haueisen-Ring",BUS,50
246407,Pfeifferswörth,8.502489,49.48956,STATION,518366,8501620,49489438,Mannheim,Pfeifferswörth,TRAM;BUS,100
246408,Pfeifferswörth,8.500935,49.489334,STATION,518367,8501575,49489438,Mannheim,Pfeifferswörth,TRAM;BUS,50
250906,Industriestraße,8.46103,49.50646,STATION,508670,8460467,49506086,Mannheim,Industriestraße,BUS,100
250905,Industriestraße,8.45995,49.50567,STATION,508670,8460467,49506086,Mannheim,Industriestraße,BUS,100
129101,"Wieblingen Nord",8.64194,49.432733,STATION,510536,8642050,49432671,Heidelberg,"Wieblingen Nord",BUS,50
129102,"Wieblingen Nord",8.642051,49.432773,STATION,510536,8642050,49432671,Heidelberg,"Wieblingen Nord",BUS,50
210002,Rohrlachstraße,8.42899,49.483231,STATION,518306,8429823,49483100,"Ludwigshafen am Rhein",Rohrlachstraße,TRAM;BUS;ON_DEMAND,100
210001,Rohrlachstraße,8.429817,49.483105,STATION,518306,8429823,49483100,"Ludwigshafen am Rhein",Rohrlachstraße,TRAM;BUS;ON_DEMAND,50
235306,"Am Kuhbuckel",8.511045,49.525965,STATION,507611,8511068,49525835,Mannheim,"Käfertal Am Kuhbuckel",BUS,50
210008,Rohrlachstraße,8.43188,49.48267,STATION,518308,8430309,49483037,"Ludwigshafen am Rhein",Rohrlachstraße,TRAM;BUS;ON_DEMAND,150
235305,"Am Kuhbuckel",8.511052,49.525863,STATION,507611,8511068,49525835,Mannheim,"Käfertal Am Kuhbuckel",BUS,50
210007,Rohrlachstraße,8.43091,49.483095,STATION,518308,8430309,49483037,"Ludwigshafen am Rhein",Rohrlachstraße,TRAM;BUS;ON_DEMAND,50
210006,Rohrlachstraße,8.43028,49.48278,STATION,518307,8430084,49482822,"Ludwigshafen am Rhein",Rohrlachstraße,TRAM;BUS;ON_DEMAND,50
210005,Rohrlachstraße,8.42989,49.48254,STATION,518307,8430084,49482822,"Ludwigshafen am Rhein",Rohrlachstraße,TRAM;BUS;ON_DEMAND,50
256207,Kirschgartshausen,8.447633,49.581194,STATION,509464,8447927,49581379,Mannheim,Kirschgartshausen,BUS;ON_DEMAND,50
119301,Stadtbücherei,8.68698,49.40626,STATION,510893,8686232,49406108,Heidelberg,Stadtbücherei,TRAM;BUS,100
119304,Stadtbücherei,8.68582,49.406075,STATION,506958,8685611,49405991,Heidelberg,Stadtbücherei,TRAM;BUS,50
119302,Stadtbücherei,8.68601,49.4061,STATION,510891,8686151,49406090,Heidelberg,Stadtbücherei,TRAM;BUS,50
119303,Stadtbücherei,8.686919,49.406286,STATION,510893,8686232,49406108,Heidelberg,Stadtbücherei,TRAM;BUS,100
222005,Philharmonie,8.44259,49.479726,STATION,511202,8444314,49479523,"Ludwigshafen am Rhein",Wilhelm-Hack-Museum,BUS;ON_DEMAND,150
259312,"Pforzheimer Straße",8.55056,49.47329,STATION,511072,8550539,49473365,Mannheim,"Seckenheim Pforzheimer Straße",TRAM,50
249505,Mallaustraße,8.509996,49.4542,STATION,508501,8509872,49454263,Mannheim,"Neckarau Mallaustraße",BUS,50
249506,Mallaustraße,8.509708,49.454327,STATION,508501,8509872,49454263,Mannheim,"Neckarau Mallaustraße",BUS,50
217905,Ostringplatz,8.389953,49.532696,STATION,518649,8389974,49532613,"Ludwigshafen am Rhein","Edigheim Ostringplatz",BUS,50
217906,Ostringplatz,8.389915,49.532613,STATION,518649,8389974,49532613,"Ludwigshafen am Rhein","Edigheim Ostringplatz",BUS,50
217909,Ostringplatz,8.389399,49.532756,STATION,509476,8389291,49532766,"Ludwigshafen am Rhein","Edigheim Ostringplatz",BUS,50
217907,Ostringplatz,8.389395,49.533777,STATION,518650,8389327,49533737,"Ludwigshafen am Rhein","Edigheim Ostringplatz",BUS,50
217908,Ostringplatz,8.390892,49.532837,STATION,509475,8390936,49532865,"Ludwigshafen am Rhein","Edigheim Ostringplatz",BUS,50
202406,"Edigheim Kirche",8.392655,49.52971,STATION,506034,8392482,49529871,"Ludwigshafen am Rhein","Edigheim Kirche",BUS,50
259301,"Pforzheimer Straße",8.549691,49.473538,STATION,509721,8549712,49473509,Mannheim,"Seckenheim Pforzheimer Straße",TRAM,50
203736,Rottstückerweg,8.41625,49.50254,STATION,518109,8416196,49502742,"Ludwigshafen am Rhein","Friesenheim Rottstückerweg",TRAM;BUS,50
202405,"Edigheim Kirche",8.392126,49.530136,STATION,506034,8392482,49529871,"Ludwigshafen am Rhein","Edigheim Kirche",BUS,50
263805,Wallstadtschule,8.548777,49.497607,STATION,510380,8548804,49497609,Mannheim,"Wallstadt Wallstadtschule",BUS,50
114901,Rudolf-Diesel-Str.,8.677795,49.395987,STATION,506952,8677836,49396004,Heidelberg,Rudolf-Diesel-Straße,TRAM;BUS,50
114902,Rudolf-Diesel-Str.,8.67906,49.39688,STATION,509355,8679031,49396849,Heidelberg,Rudolf-Diesel-Straße,TRAM;BUS,50
114903,Rudolf-Diesel-Str.,8.67783,49.39601,STATION,506952,8677836,49396004,Heidelberg,Rudolf-Diesel-Straße,TRAM;BUS,50
131002,"Grüner Baum",8.751988,49.437555,STATION,510795,8752069,49437615,Heidelberg,"Ziegelhausen Grüner Baum",BUS,50
114904,Rudolf-Diesel-Str.,8.67908,49.3968,STATION,509355,8679031,49396849,Heidelberg,Rudolf-Diesel-Straße,TRAM;BUS,50
131001,"Grüner Baum",8.75206,49.437754,STATION,510795,8752069,49437615,Heidelberg,"Ziegelhausen Grüner Baum",BUS,50
114906,Rudolf-Diesel-Str.,8.67719,49.39612,STATION,506952,8677836,49396004,Heidelberg,Rudolf-Diesel-Straße,TRAM;BUS,50
269105,"Wallstadt Friedhof",8.55268,49.500523,STATION,519350,8552733,49500476,Mannheim,"Wallstadt Friedhof",BUS,50
298901,Eichendorffstr.,8.803224,49.385009,STATION,508554,8803244,49385019,Neckargemünd,Eichendorffstraße,BUS,50
212205,"Maudach Ortseingang",8.389793,49.455174,STATION,508228,8389498,49455189,"Ludwigshafen am Rhein","Maudach Ortseingang",BUS,50
212206,"Maudach Ortseingang",8.38927,49.4551,STATION,508228,8389498,49455189,"Ludwigshafen am Rhein","Maudach Ortseingang",BUS,50
237501,"Käfertaler Wald",8.50923,49.52949,STATION,507629,8509423,49529583,Mannheim,"Käfertal Käfertaler Wald",TRAM;BUS,50
554707,"Käfertal Bahnhof",8.51818,49.50982,STATION,518232,8518286,49509771,Mannheim,"Käfertal Bahnhof (RNV)",TRAM;BUS,50
237505,"Käfertaler Wald",8.50945,49.5295,STATION,507629,8509423,49529583,Mannheim,"Käfertal Käfertaler Wald",TRAM;BUS,50
251812,Hans-Thoma-Straße,8.524093,49.47476,STATION,508705,8524228,49474992,Mannheim,"Neuostheim Hans-Thoma-Straße",TRAM;BUS,50
554701,"Käfertal Bahnhof",8.518189,49.50963,STATION,518232,8518286,49509771,Mannheim,"Käfertal Bahnhof (RNV)",TRAM;BUS,50
124702,"Im Buschgewann",8.648679,49.397416,STATION,509021,8648594,49397478,Heidelberg,"Pfaffengrund Im Buschgewann",BUS;ON_DEMAND,50
554702,"Käfertal Bahnhof",8.518556,49.510136,STATION,518232,8518286,49509771,Mannheim,"Käfertal Bahnhof (RNV)",TRAM;BUS,50
385312,"Viernheim Ost",8.589774,49.537517,STATION,510171,8589472,49537503,,"Viernheim Ost",TRAM,50
385311,"Viernheim Ost",8.589402,49.537459,STATION,510171,8589472,49537503,,"Viernheim Ost",TRAM,50
247305,"Verl. Jungbuschstr.",8.452177,49.494661,STATION,508192,8452278,49494615,Mannheim,"Verlängerte Jungbuschstraße",BUS,50
62605,"Neckarh. Rathaus",8.60259,49.46416,STATION,508578,8602875,49463738,Edingen-Neckarhausen,"Neckarhausen Rathaus",BUS,100
245128,Paradeplatz,8.465984,49.48787,STATION,518359,8465753,49487208,Mannheim,Paradeplatz,TRAM;BUS,100
251806,Hans-Thoma-Straße,8.524129,49.474812,STATION,508705,8524228,49474992,Mannheim,"Neuostheim Hans-Thoma-Straße",TRAM;BUS,50
245125,Paradeplatz,8.46638,49.48784,STATION,518358,8466841,49487532,Mannheim,Paradeplatz,TRAM;BUS,50
251802,Hans-Thoma-Straße,8.524139,49.474742,STATION,508705,8524228,49474992,Mannheim,"Neuostheim Hans-Thoma-Straße",TRAM;BUS,50
251805,Hans-Thoma-Straße,8.524343,49.475221,STATION,508705,8524228,49474992,Mannheim,"Neuostheim Hans-Thoma-Straße",TRAM;BUS,50
347920,"Schriesheim Bahnhof",8.66034,49.47144,STATION,518517,8660406,49472664,Schriesheim,Bahnhof,TRAM;BUS,150
251801,Hans-Thoma-Straße,8.524343,49.475243,STATION,508705,8524228,49474992,Mannheim,"Neuostheim Hans-Thoma-Straße",TRAM;BUS,50
284706,"SAP Arena",8.518961,49.463337,STATION,507341,8519697,49464115,Mannheim,"Neuhermsheim SAP Arena",TRAM;BUS,150
284705,"SAP Arena",8.520431,49.46492,STATION,507341,8519697,49464115,Mannheim,"Neuhermsheim SAP Arena",TRAM;BUS,150
257105,"Rastenburger Straße",8.468441,49.550576,STATION,509697,8468450,49550717,Mannheim,"Schönau Rastenburger Straße",BUS,50
284702,"SAP Arena",8.518957,49.463313,STATION,507341,8519697,49464115,Mannheim,"Neuhermsheim SAP Arena",TRAM;BUS,150
257106,"Rastenburger Straße",8.468393,49.550792,STATION,509697,8468450,49550717,Mannheim,"Schönau Rastenburger Straße",BUS,50
284701,"SAP Arena",8.520468,49.464911,STATION,507341,8519697,49464115,Mannheim,"Neuhermsheim SAP Arena",TRAM;BUS,150
261601,Roche,8.469148,49.528296,STATION,510279,8468908,49528505,Mannheim,"Waldhof Roche",TRAM;BUS,50
204606,"Königsbacher Straße",8.40047,49.4623,STATION,506507,8401273,49461445,"Ludwigshafen am R","Gartenstadt Königsbacher Straße",BUS,150
261602,Roche,8.468683,49.528692,STATION,510279,8468908,49528505,Mannheim,"Waldhof Roche",TRAM;BUS,50
204605,"Königsbacher Straße",8.401958,49.460727,STATION,506507,8401273,49461445,"Ludwigshafen am R","Gartenstadt Königsbacher Straße",BUS,100
336801,"Rohrbach NVZ",8.67927,49.38341,STATION,510764,8678663,49382996,Heidelberg,"Rohrbach NVZ",BUS,100
261605,Roche,8.469127,49.528416,STATION,510279,8468908,49528505,Mannheim,"Waldhof Roche",TRAM;BUS,50
614401,Universitäts-Campus,8.670507,49.413369,STATION,508205,8670348,49413398,Heidelberg,"Neuenheim Uni-Campus",BUS,50
670905,"Neckarh. Friedhof",8.598075,49.460948,STATION,515704,8598119,49461122,Edingen-Neckarhausen,"Neckarhausen Friedhof",BUS,50
614402,Universitäts-Campus,8.670295,49.413455,STATION,508205,8670348,49413398,Heidelberg,"Neuenheim Uni-Campus",BUS,50
261606,Roche,8.468916,49.528704,STATION,510279,8468908,49528505,Mannheim,"Waldhof Roche",TRAM;BUS,50
112702,"Emmertsgrund Endst.",8.704491,49.358877,STATION,506111,8703832,49359436,Heidelberg,"Emmertsgrund Endstelle",BUS,100
112701,"Emmertsgrund Endst.",8.703837,49.359335,STATION,506111,8703832,49359436,Heidelberg,"Emmertsgrund Endstelle",BUS,50
236201,Speckweg,8.49903,49.5206,STATION,511187,8499085,49520693,Mannheim,"Käfertal Speckweg",TRAM;BUS,50
236202,Speckweg,8.49938,49.52106,STATION,511177,8499166,49520684,Mannheim,"Käfertal Speckweg",TRAM;BUS,50
133201,Augustinum,8.703482,49.362895,STATION,506110,8703491,49362968,Heidelberg,"Emmertsgrund Augustinum",BUS,50
133202,Augustinum,8.703578,49.362937,STATION,506110,8703491,49362968,Heidelberg,"Emmertsgrund Augustinum",BUS,50
214405,Damaschkestraße,8.404414,49.471814,STATION,518435,8404671,49471459,"Ludwigshafen am Rhein","Niederfeld Damaschkestraße",BUS,50
239702,Bgm.-Fuchs-Straße,8.463843,49.501265,STATION,508111,8463650,49501232,Mannheim,"Bürgermeister-Fuchs-Straße",TRAM;BUS,50
752637,"Rheinallee Nord",8.45541,49.47656,STATION,510125,8455424,49476628,"Ludwigshafen am Rhein","Rheinallee Nord",BUS;ON_DEMAND,50
239701,Bgm.-Fuchs-Straße,8.463646,49.501285,STATION,508111,8463650,49501232,Mannheim,"Bürgermeister-Fuchs-Straße",TRAM;BUS,50
214407,Damaschkestraße,8.4043,49.47134,STATION,518435,8404671,49471459,"Ludwigshafen am Rhein","Niederfeld Damaschkestraße",BUS,50
239706,Bgm.-Fuchs-Straße,8.463657,49.501167,STATION,508111,8463650,49501232,Mannheim,"Bürgermeister-Fuchs-Straße",TRAM;BUS,50
680706,Wasserwerk,8.364096,49.473646,STATION,506886,8364103,49473689,"Ludwigshafen am Rhein","Oggersheim Wasserwerk",BUS,50
239705,Bgm.-Fuchs-Straße,8.46385,49.501156,STATION,508111,8463650,49501232,Mannheim,"Bürgermeister-Fuchs-Straße",TRAM;BUS,50
680705,Wasserwerk,8.364178,49.473717,STATION,506886,8364103,49473689,"Ludwigshafen am Rhein","Oggersheim Wasserwerk",BUS,50
122501,Blumenthalstr.,8.68906,49.421556,STATION,518414,8689099,49421668,Heidelberg,"Neuenheim Blumenthalstraße",TRAM,50
118011,Ochsenkopf,8.652087,49.409559,STATION,506945,8652504,49409515,Heidelberg,Ochsenkopf,TRAM,50
118012,Ochsenkopf,8.653085,49.409427,STATION,506945,8652504,49409515,Heidelberg,Ochsenkopf,TRAM,50
122502,Blumenthalstr.,8.68895,49.42207,STATION,518413,8689081,49421713,Heidelberg,"Neuenheim Blumenthalstraße",TRAM,50
670906,"Neckarh. Friedhof",8.598709,49.462039,STATION,515704,8598119,49461122,Edingen-Neckarhausen,"Neckarhausen Friedhof",BUS,150
284712,"SAP Arena",8.518913,49.463339,STATION,507341,8519697,49464115,Mannheim,"Neuhermsheim SAP Arena",TRAM;BUS,150
203306,Lagewiesenstraße,8.411248,49.493664,STATION,518103,8411251,49493699,"Ludwigshafen am Rhei","Friesenheim Lagewiesenstraße",BUS,50
242912,Luisenp./Technoseum,8.496506,49.478581,STATION,507894,8496236,49478642,Mannheim,Luisenpark/Technoseum,TRAM;BUS,50
203305,Lagewiesenstraße,8.410351,49.493615,STATION,518104,8410362,49493573,"Ludwigshafen am Rhei","Friesenheim Lagewiesenstraße",BUS,50
262505,Neueichwaldstraße,8.500109,49.530279,STATION,510288,8500559,49530330,Mannheim,"Waldhof Neueichwaldstraße",BUS,50
113606,Hans-Thoma-Platz,8.68266,49.42816,STATION,518773,8682906,49428149,Heidelberg,"Handschuhsheim Hans-Thoma-Platz",TRAM;BUS;ON_DEMAND,50
113605,Hans-Thoma-Platz,8.684162,49.427977,STATION,518772,8683112,49427691,Heidelberg,"Handschuhsheim Hans-Thoma-Platz",TRAM;BUS;ON_DEMAND,100
262506,Neueichwaldstraße,8.500373,49.530301,STATION,510288,8500559,49530330,Mannheim,"Waldhof Neueichwaldstraße",BUS,50
113604,Hans-Thoma-Platz,8.683072,49.426879,STATION,518772,8683112,49427691,Heidelberg,"Handschuhsheim Hans-Thoma-Platz",TRAM;BUS;ON_DEMAND,100
113603,Hans-Thoma-Platz,8.68305,49.427369,STATION,518772,8683112,49427691,Heidelberg,"Handschuhsheim Hans-Thoma-Platz",TRAM;BUS;ON_DEMAND,50
113601,Hans-Thoma-Platz,8.682977,49.427424,STATION,518772,8683112,49427691,Heidelberg,"Handschuhsheim Hans-Thoma-Platz",TRAM;BUS;ON_DEMAND,50
132302,Neckarschule,8.756836,49.419162,STATION,510816,8756851,49419349,Heidelberg,"Ziegelhausen Neckarschule",BUS;ON_DEMAND,50
132301,Neckarschule,8.756981,49.419401,STATION,510816,8756851,49419349,Heidelberg,"Ziegelhausen Neckarschule",BUS;ON_DEMAND,50
236206,Speckweg,8.498,49.52066,STATION,511137,8497934,49520657,Mannheim,"Käfertal Speckweg",TRAM;BUS,50
683805,Mühlaustraße,8.384114,49.529196,STATION,506032,8386423,49529485,"Ludwigshafen am Rhein","Edigheim Deichstraße",BUS,200
248205,"Ladenburger Straße",8.520828,49.512083,STATION,519346,8520821,49512064,Mannheim,"Käfertal Ladenburger Straße",BUS,50
242905,Luisenp./Technoseum,8.496248,49.478885,STATION,508151,8496245,49478741,Mannheim,Luisenpark/Technoseum,TRAM;BUS,50
242906,Luisenp./Technoseum,8.496068,49.478662,STATION,507894,8496236,49478642,Mannheim,Luisenpark/Technoseum,TRAM;BUS,50
242901,Luisenp./Technoseum,8.495746,49.478978,STATION,508151,8496245,49478741,Mannheim,Luisenpark/Technoseum,TRAM;BUS,50
113612,Hans-Thoma-Platz,8.6833,49.42799,STATION,518772,8683112,49427691,Heidelberg,"Handschuhsheim Hans-Thoma-Platz",TRAM;BUS;ON_DEMAND,50
113611,Hans-Thoma-Platz,8.682927,49.427461,STATION,518772,8683112,49427691,Heidelberg,"Handschuhsheim Hans-Thoma-Platz",TRAM;BUS;ON_DEMAND,50
238401,Meeräckerplatz,8.471359,49.469235,STATION,507942,8471686,49469149,Mannheim,"Lindenhof Meeräckerplatz",TRAM;BUS,50
234045,"BASF Friesenh. Insel",8.44644,49.52171,STATION,506435,8445680,49521152,Mannheim,"Friesenheimer Insel BASF",BUS,100
252705,Faltkistenwerk,8.51158,49.421344,STATION,509203,8511077,49421326,Mannheim,"Rheinau Faltkistenwerk",BUS,50
347912,"Schriesheim Bahnhof",8.660158,49.472317,STATION,518517,8660406,49472664,Schriesheim,Bahnhof,TRAM;BUS,50
252706,Faltkistenwerk,8.51059,49.421346,STATION,509203,8511077,49421326,Mannheim,"Rheinau Faltkistenwerk",BUS,50
344401,Festplatz,8.811391,49.430536,STATION,509538,8811874,49430846,"Schönau (Odenwald)",Festplatz,BUS,50
347911,"Schriesheim Bahnhof",8.660382,49.471778,STATION,518517,8660406,49472664,Schriesheim,Bahnhof,TRAM;BUS,100
216601,"Zum Guten Hirten",8.3879,49.48815,STATION,518453,8388167,49488476,Ludwigs,"Oggersheim Zum Guten Hirten (BG-Unfallkl)",TRAM;ON_DEMAND,50
216602,"Zum Guten Hirten",8.386845,49.488341,STATION,518452,8387457,49488179,Ludwigs,"Oggersheim Zum Guten Hirten (BG-Unfallkl)",TRAM;ON_DEMAND,50
62606,"Neckarh. Rathaus",8.60199,49.4646,STATION,508578,8602875,49463738,Edingen-Neckarhausen,"Neckarhausen Rathaus",BUS,150
206802,Bgm.-Kutterer-Straße,8.440958,49.477567,STATION,511097,8441060,49477527,"Ludwigshafen am Rhe","Bürgermeister-Kutterer-Straße",TRAM;BUS,50
206805,Bgm.-Kutterer-Straße,8.44125,49.4778,STATION,511098,8441257,49477797,"Ludwigshafen am Rhe","Bürgermeister-Kutterer-Straße",TRAM;BUS,50
206806,Bgm.-Kutterer-Straße,8.442269,49.478257,STATION,508198,8442291,49478255,"Ludwigshafen am Rhe","Bürgermeister-Kutterer-Straße",TRAM;BUS,50
258006,"Tilsiter Straße",8.467593,49.552377,STATION,515115,8467740,49552398,Mannheim,"Schönau Tilsiter Straße",BUS,50
258005,"Tilsiter Straße",8.467873,49.552423,STATION,515115,8467740,49552398,Mannheim,"Schönau Tilsiter Straße",BUS,50
260302,"Potsdamer Weg",8.533467,49.508268,STATION,510198,8533406,49508243,Mannheim,"Vogelstang Potsdamer Weg",TRAM;BUS,50
260301,"Potsdamer Weg",8.533196,49.508087,STATION,510198,8533406,49508243,Mannheim,"Vogelstang Potsdamer Weg",TRAM;BUS,50
260306,"Potsdamer Weg",8.531713,49.510158,STATION,507203,8531599,49510176,Mannheim,"Vogelstang Potsdamer Weg",TRAM;BUS,50
260305,"Potsdamer Weg",8.531318,49.510239,STATION,507203,8531599,49510176,Mannheim,"Vogelstang Potsdamer Weg",TRAM;BUS,50
134501,Wolfsbrunnensteige,8.74509,49.4132,STATION,509589,8745327,49413020,Heidelberg,"Schlierbach Wolfsbrunnensteige",BUS;ON_DEMAND,50
109101,"Bärenbach Süd",8.77545,49.41345,STATION,510790,8775755,49413560,Heidelberg,"Ziegelhausen Bärenbach Süd",BUS;ON_DEMAND,50
238412,Meeräckerplatz,8.471914,49.468988,STATION,507942,8471686,49469149,Mannheim,"Lindenhof Meeräckerplatz",TRAM;BUS,50
215308,Froschlache,8.392777,49.490846,STATION,511225,8392806,49490858,"Ludwigshafen am Rhein","Oggersheim Froschlache",BUS,50
51511,"Dossenheim Bahnhof",8.670168,49.448188,STATION,505914,8669817,49448411,Dossenheim,Bahnhof,TRAM;BUS,50
238405,Meeräckerplatz,8.47167,49.469486,STATION,507942,8471686,49469149,Mannheim,"Lindenhof Meeräckerplatz",TRAM;BUS,50
250512,Diesterwegschule,8.47007,49.471,STATION,507940,8469879,49471504,Mannheim,"Lindenhof Diesterwegschule",TRAM;BUS,100
51512,"Dossenheim Bahnhof",8.669532,49.448554,STATION,505914,8669817,49448411,Dossenheim,Bahnhof,TRAM;BUS,50
215306,Froschlache,8.393076,49.491534,STATION,508954,8393048,49491613,"Ludwigshafen am Rhein","Oggersheim Froschlache",BUS,50
215305,Froschlache,8.391234,49.491626,STATION,511224,8391224,49491550,"Ludwigshafen am Rhein","Oggersheim Froschlache",BUS,50
246005,Sandgewann,8.483197,49.509982,STATION,508180,8483390,49510005,Mannheim,Sandgewann,BUS,50
246006,Sandgewann,8.483536,49.509916,STATION,508180,8483390,49510005,Mannheim,Sandgewann,BUS,50
460606,Hauptstraße,8.419972,49.445182,STATION,509253,8420394,49445247,"Ludwigshafen am Rhein","Rheingönheim Hauptstraße",BUS,50
460605,Hauptstraße,8.420769,49.445311,STATION,509253,8420394,49445247,"Ludwigshafen am Rhein","Rheingönheim Hauptstraße",BUS,50
250501,Diesterwegschule,8.469868,49.471566,STATION,507940,8469879,49471504,Mannheim,"Lindenhof Diesterwegschule",TRAM;BUS,50
587602,"Vorderheubach Höhe",8.777667,49.488462,STATION,510211,8777283,49488404,Heiligkreuzsteinach,"Vorderheubach Höhe",BUS,50
126901,Hertzstr.,8.684907,49.366644,STATION,509332,8684901,49366510,Heidelberg,"Rohrbach Hertzstraße",BUS,50
554720,"Käfertal Bahnhof",8.517715,49.509102,STATION,518233,8517873,49509565,Mannheim,"Käfertal Bahnhof (RNV)",TRAM;BUS,100
554722,"Käfertal Bahnhof",8.518572,49.510057,STATION,518232,8518286,49509771,Mannheim,"Käfertal Bahnhof (RNV)",TRAM;BUS,50
264602,Stollenwörth,8.471935,49.450599,STATION,508511,8472477,49450793,Mannheim,"Neckarau Stollenwörth",TRAM;BUS,50
241505,Güteramt,8.448535,49.498578,STATION,508133,8448179,49499110,Mannheim,Güteramt,BUS,100
218720,"Pfingstweide Zentrum",8.391092,49.539603,STATION,518469,8388922,49540460,"Ludwigshafen am Rhein","Pfingstweide Zentrum",BUS,200
264601,Stollenwörth,8.473143,49.451014,STATION,508511,8472477,49450793,Mannheim,"Neckarau Stollenwörth",TRAM;BUS,100
411311,"Freiburger Straße",8.628792,49.545324,STATION,510433,8630004,49545225,Weinheim,"Freiburger Straße",TRAM;BUS,100
215205,"Oggersheim Friedhof",8.367368,49.497168,STATION,518442,8367510,49497240,"Ludwigshafen am Rhein","Oggersheim Friedhof",BUS,50
251305,Teufelsloch,8.501396,49.472873,STATION,508673,8501359,49472826,Mannheim,"Neuhermsheim Teufelsloch",BUS,50
215206,"Oggersheim Friedhof",8.367613,49.497243,STATION,518442,8367510,49497240,"Ludwigshafen am Rhein","Oggersheim Friedhof",BUS,50
251306,Teufelsloch,8.501332,49.472778,STATION,508673,8501359,49472826,Mannheim,"Neuhermsheim Teufelsloch",BUS,50
127804,"Rohrbach Süd",8.688865,49.36548,STATION,518495,8688964,49365396,Heidelberg,"Rohrbach Süd",TRAM;BUS,50
127803,"Rohrbach Süd",8.68859,49.36591,STATION,518494,8688740,49365674,Heidelberg,"Rohrbach Süd",TRAM;BUS,50
127802,"Rohrbach Süd",8.688737,49.365841,STATION,518494,8688740,49365674,Heidelberg,"Rohrbach Süd",TRAM;BUS,50
127801,"Rohrbach Süd",8.68871,49.365576,STATION,518494,8688740,49365674,Heidelberg,"Rohrbach Süd",TRAM;BUS,50
261106,Alsenweg,8.484358,49.531806,STATION,510274,8483974,49531939,Mannheim,"Waldhof Alsenweg",BUS,50
114501,Bierhelderhof,8.705116,49.390146,STATION,509362,8705100,49390107,Heidelberg,"Bierhelderhof/Ehrenfriedhof",BUS;ON_DEMAND,50
261105,Alsenweg,8.48357,49.532072,STATION,510274,8483974,49531939,Mannheim,"Waldhof Alsenweg",BUS,50
114502,Bierhelderhof,8.705376,49.389929,STATION,509362,8705100,49390107,Heidelberg,"Bierhelderhof/Ehrenfriedhof",BUS;ON_DEMAND,50
298861,Dreikreuzweg,8.80256,49.38412,STATION,508553,8802597,49384417,Neckargemünd,Dreikreuzweg,BUS;ON_DEMAND,50
114504,Bierhelderhof,8.70504,49.39029,STATION,509362,8705100,49390107,Heidelberg,"Bierhelderhof/Ehrenfriedhof",BUS;ON_DEMAND,50
254806,"Rotterdamer S. Süd",8.514664,49.420693,STATION,509226,8514933,49421398,Mannheim,"Rheinau Rotterdamer Straße Süd",BUS,100
254805,"Rotterdamer S. Süd",8.515337,49.421312,STATION,509226,8514933,49421398,Mannheim,"Rheinau Rotterdamer Straße Süd",BUS,50
254808,"Rotterdamer S. Süd",8.514937,49.422223,STATION,509226,8514933,49421398,Mannheim,"Rheinau Rotterdamer Straße Süd",BUS,100
254807,"Rotterdamer S. Süd",8.514587,49.421403,STATION,509226,8514933,49421398,Mannheim,"Rheinau Rotterdamer Straße Süd",BUS,50
218706,"Pfingstweide Zentrum",8.388932,49.540466,STATION,518469,8388922,49540460,"Ludwigshafen am Rhein","Pfingstweide Zentrum",BUS,50
218705,"Pfingstweide Zentrum",8.3888,49.54041,STATION,518468,8388823,49540442,"Ludwigshafen am Rhein","Pfingstweide Zentrum",BUS,50
208902,Ludwigstraße,8.44805,49.48337,STATION,508019,8448305,49483163,"Ludwigshafen am Rhein",Ludwigstraße,TRAM,50
208901,Ludwigstraße,8.448643,49.482905,STATION,508019,8448305,49483163,"Ludwigshafen am Rhein",Ludwigstraße,TRAM,50
124302,Zoo,8.663157,49.415327,STATION,508649,8663327,49415313,Heidelberg,"Neuenheim Zoo",BUS,50
78206,"FT Hallenbad",8.36171,49.5352,STATION,506345,8362116,49535166,"Frankenthal (Pfalz)",Hallenbad,BUS;ON_DEMAND,50
78205,"FT Hallenbad",8.36283,49.535,STATION,506345,8362116,49535166,"Frankenthal (Pfalz)",Hallenbad,BUS;ON_DEMAND,100
124301,Zoo,8.663488,49.415242,STATION,508649,8663327,49415313,Heidelberg,"Neuenheim Zoo",BUS,50
262405,"Langer Schlag",8.509641,49.53113,STATION,510287,8509683,49531112,Mannheim,"Waldhof Langer Schlag",BUS,50
115801,Gneisenaustr.,8.668805,49.409301,STATION,518164,8668730,49409281,Heidelberg,Gneisenaustraße,BUS,50
115802,Gneisenaustr.,8.667713,49.408531,STATION,518163,8667714,49408472,Heidelberg,Gneisenaustraße,BUS,50
262406,"Langer Schlag",8.509825,49.531091,STATION,510287,8509683,49531112,Mannheim,"Waldhof Langer Schlag",BUS,50
217406,Kurt-Schumacher-Str.,8.39859,49.52584,STATION,508979,8398810,49525736,"Ludwigshafen am Rhei","Oppau Kurt-Schumacher-Straße",BUS,50
218736,"Pfingstweide Zentrum",8.38984,49.54032,STATION,518469,8388922,49540460,"Ludwigshafen am Rhein","Pfingstweide Zentrum",BUS,100
218735,"Pfingstweide Zentrum",8.39021,49.54028,STATION,518469,8388922,49540460,"Ludwigshafen am Rhein","Pfingstweide Zentrum",BUS,100
217405,Kurt-Schumacher-Str.,8.39909,49.52549,STATION,508979,8398810,49525736,"Ludwigshafen am Rhei","Oppau Kurt-Schumacher-Straße",BUS,50
207605,"Große Blies",8.422464,49.474111,STATION,508007,8422515,49474102,"Ludwigshafen am Rhein","Große Blies",BUS;ON_DEMAND,50
204102,Schwalbenweg,8.417804,49.493853,STATION,506464,8417859,49493878,"Ludwigshafen am Rhein","Friesenheim Schwalbenweg",TRAM;BUS,50
207606,"Große Blies",8.421887,49.472619,STATION,511132,8421832,49472637,"Ludwigshafen am Rhein","Große Blies",BUS;ON_DEMAND,50
204101,Schwalbenweg,8.41858,49.49332,STATION,511081,8418614,49493339,"Ludwigshafen am Rhein","Friesenheim Schwalbenweg",TRAM;BUS,50
125601,Marktstr.,8.648457,49.403984,STATION,518467,8647434,49403528,Heidelberg,"Pfaffengrund Marktstraße",TRAM;BUS,100
614001,"Quartieram Turm",8.682125,49.382006,STATION,508197,8682186,49382160,Heidelberg,"Rohrbach Quartier Am Turm",BUS,50
614002,"Quartieram Turm",8.682157,49.381944,STATION,508197,8682186,49382160,Heidelberg,"Rohrbach Quartier Am Turm",BUS,50
248105,"Neckarau Bahnhof",8.494434,49.455453,STATION,506679,8494375,49455431,Mannheim,"Neckarau Bahnhof",TRAM;BUS,50
248108,"Neckarau Bahnhof",8.495188,49.455259,STATION,8003844,8494788,49455548,,Mannheim-Neckarau,REGIONAL_TRAIN,50
248107,"Neckarau Bahnhof",8.495407,49.455001,STATION,8003844,8494788,49455548,,Mannheim-Neckarau,REGIONAL_TRAIN,100
112301,Fernheizwerk,8.706823,49.376132,STATION,505639,8706790,49376120,Heidelberg,"Boxberg Fernheizwerk",BUS,50
411312,"Freiburger Straße",8.630951,49.545106,STATION,511238,8630444,49545036,Weinheim,"Freiburger Straße",TRAM;BUS,50
252605,Chiemseestraße,8.53417,49.41716,STATION,509201,8534125,49417137,Mannheim,"Rheinau Chiemseestraße",BUS,50
252606,Chiemseestraße,8.534074,49.417112,STATION,509201,8534125,49417137,Mannheim,"Rheinau Chiemseestraße",BUS,50
221909,"BASF Süd",8.435923,49.492479,STATION,518271,8436116,49492467,"Ludwigshafen am Rhein","BASF Süd",BUS,50
158112,"Großsachsen Bahnhof",8.656851,49.514553,STATION,506672,8656783,49514248,"Hirschberg an der Bergstraße","Großsachsen Bahnhof",TRAM;BUS;ON_DEMAND,50
158111,"Großsachsen Bahnhof",8.656707,49.514037,STATION,506672,8656783,49514248,"Hirschberg an der Bergstraße","Großsachsen Bahnhof",TRAM;BUS;ON_DEMAND,50
231701,"Feudenheim Kirche",8.530683,49.486538,STATION,510750,8530763,49486489,Mannheim,"Feudenheim Kirche",TRAM;BUS,50
231702,"Feudenheim Kirche",8.53048,49.486306,STATION,511001,8530439,49486291,Mannheim,"Feudenheim Kirche",TRAM;BUS,50
231705,"Feudenheim Kirche",8.530638,49.486728,STATION,506250,8530637,49486714,Mannheim,"Feudenheim Kirche",TRAM;BUS,50
231706,"Feudenheim Kirche",8.53145,49.486566,STATION,510750,8530763,49486489,Mannheim,"Feudenheim Kirche",TRAM;BUS,50
245901,Rosengarten,8.475284,49.485285,STATION,518363,8475399,49485464,Mannheim,Rosengarten,TRAM,50
245902,Rosengarten,8.47564,49.48572,STATION,518363,8475399,49485464,Mannheim,Rosengarten,TRAM,50
158512,"Leutershausen Bf.",8.656618,49.498207,STATION,507896,8656576,49497959,"Hirschberg an der Bergstraß","Leutershausen Bahnhof",TRAM;ON_DEMAND,50
216105,Rosenwörthstraße,8.37428,49.49729,STATION,508962,8374459,49497052,"Ludwigshafen am Rhein","Oggersheim Rosenwörthstraße",BUS,50
158511,"Leutershausen Bf.",8.656634,49.497647,STATION,507896,8656576,49497959,"Hirschberg an der Bergstraß","Leutershausen Bahnhof",TRAM;ON_DEMAND,50
245906,Rosengarten,8.475988,49.485896,STATION,518363,8475399,49485464,Mannheim,Rosengarten,TRAM,100
239205,Sporwörthplatz,8.518898,49.442819,STATION,509232,8518978,49442874,Mannheim,"Rheinau Sporwörthplatz",BUS,50
