id,date_time,from_id,from_name,from_lon,from_lat,to_id,to_name,to_lon,to_lat
c08b2cb1,2016-10-01T00:13:00,255606,"Blumenauer Weg",8.448225,49.555514,242306,Hombuschstraße,8.460743,49.516252
1dd89a72,2016-10-01T00:36:00,260301,"Potsdamer Weg",8.533196,49.508087,128401,"S-Bf Orthopädie",8.77493,49.41033
8f029fc2,2016-10-01T00:57:00,231105,Adolf-Damaschke-Ring,8.521223,49.493217,237606,"Käfertal Süd",8.505925,49.5072
ba5b6276,2016-10-01T01:06:00,281002,Maxdorf,8.293832,49.480157,231506,Feudenheim,8.53821,49.48411
9af4fee7,2016-10-01T01:17:00,108601,"Bärenbach Nord",8.772751,49.415084,410512,Blumenstraße,8.638593,49.544466
2a0a2630,2016-10-01T01:27:00,248705,Friedrichstraße,8.495132,49.453269,249106,"Im Morchhof",8.504585,49.456003
b20b96bb,2016-10-01T01:45:00,263101,Zellstoff-Fabrik,8.465351,49.531218,262905,Waldpforte,8.49674,49.537981
e52875fd,2016-10-01T01:51:00,231702,"Feudenheim Kirche",8.53048,49.486306,110702,Hirtenbrunnenweg,8.756378,49.422599
3e0a530a,2016-10-01T02:11:00,232001,Neckarplatt,8.512692,49.488966,238603,Luzenberg,8.475233,49.515999
8d440774,2016-10-01T02:13:00,206705,Bgm.-Krafft-Platz,8.450213,49.473151,202605,Kranichstraße,8.385158,49.536212
dc10d996,2016-10-01T02:20:00,202605,Kranichstraße,8.385158,49.536212,234305,"Rotterdamer S. Mitte",8.51421,49.425847
0dd7ea9c,2016-10-01T02:29:00,255806,"Sandhofen Friedhof",8.452324,49.550197,245804,Rheinstraße,8.457928,49.490984
98116626,2016-10-01T02:34:00,259606,Schwabenstraße,8.56757,49.46263,121801,Ilse-Krall-Str.,8.67338,49.38626
7af663aa,2016-10-01T03:04:00,214905,"Bexbacher Straße",8.397213,49.492064,236306,Habichtplatz,8.508281,49.513038
f58b50c4,2016-10-01T03:13:00,112601,Louise-Ebert-Zentrum,8.703735,49.373004,202906,Ebertpark/Fichtestr.,8.421155,49.491555
fd09c8f3,2016-10-01T03:23:00,603605,"Pfingstberg Sportan.",8.524846,49.449159,209008,Marienkirche,8.4299,49.48507
191e8c0f,2016-10-01T04:42:00,206905,Bruchwiesenstraße,8.420092,49.469311,120002,Albert-Fritz-Str.,8.67236,49.38318
d8eaa1ed,2016-10-01T05:22:00,243705,Zielstraße,8.50002,49.50577,213005,"Mundenheim Friedhof",8.416871,49.468181
12bf51e4,2016-10-01T06:01:00,131102,Haarlaß,8.728996,49.420131,233506,"Fried. Vogesenstraße",8.578992,49.442503
6a8f36be,2016-10-01T06:11:00,554803,"Alte Feuerwache",8.47379,49.49612,112902,Jaspersstr.,8.703439,49.361354
49ee09d9,2016-10-01T06:43:00,131503,"Kleingemünder Str.",8.76291,49.41757,127201,Kolbenzeil,8.68157,49.373791
d8f050d5,2016-10-01T06:56:00,258106,M.-Winterhalter-Ring,8.481388,49.551635,211706,"Maudach Gemeindehaus",8.38297,49.45507
e5998bd6,2016-10-01T07:20:00,62405,"Neckarh. Brücke",8.598642,49.46863,207805,Halberg,8.451081,49.476789
5f9e7fd2,2016-10-01T08:10:00,264602,Stollenwörth,8.471935,49.450599,122301,"Alte Brücke Nord",8.709199,49.415282
7684c028,2016-10-01T08:13:00,216601,"Zum Guten Hirten",8.3879,49.48815,641001,Bahofweg,8.701038,49.431522
4c296940,2016-10-01T08:16:00,238302,Lindenhofplatz,8.467969,49.476886,132102,Mühldamm,8.751545,49.425364
7110fc76,2016-10-01T08:30:00,328420,Nachtweide,8.405485,49.540546,211105,Wittelsbachplatz,8.44369,49.475599
f51a611a,2016-10-01T08:32:00,244607,"Neckarstadt West",8.459882,49.502838,214201,Wollstraße,8.396974,49.485834
6c86538d,2016-10-01T08:33:00,256607,Scharhof,8.447739,49.560017,695702,"Untere Rödt",8.647244,49.402146
9bf648d0,2016-10-01T09:07:00,254401,"Rheinau Karlsplatz",8.522985,49.439035,238806,Diffenebrücke,8.472348,49.516192
40a8ddec,2016-10-01T09:43:00,679401,Montpellierbrücke,8.678343,49.400546,252205,Neuostheim,8.52254,49.477548
da60b5ff,2016-10-01T09:48:00,679402,Montpellierbrücke,8.67874,49.40079,245306,Planetarium,8.489762,49.476534
aab43e07,2016-10-01T09:50:00,238805,Diffenebrücke,8.472043,49.516108,203702,Rottstückerweg,8.415464,49.502925
1a2debf2,2016-10-01T09:54:00,680506,Riedstraße,8.378064,49.455436,128501,Rombachweg,8.74211,49.41576
6c21a5c6,2016-10-01T10:16:00,144202,"Abzw. Bärsbach",8.772288,49.497947,203002,Kreuzstraße,8.41355,49.497187
2e11ba97,2016-10-01T10:21:00,600605,Popakademie,8.45745,49.49633,219101,Brückweg,8.42583,49.446474
943ac2f4,2016-10-01T10:22:00,208101,"LU Hauptfriedhof",8.424069,49.483946,251006,Fardelystraße,8.45769,49.50383
3b4adc6e,2016-10-01T11:11:00,244205,Moselstraße,8.483657,49.498804,232105,Neckarstraße,8.53348,49.484294
6b05467b,2016-10-01T11:23:00,114404,Betriebshof,8.674832,49.407513,217305,Kirchenstraße,8.398578,49.519768
e546cb50,2016-10-01T11:36:00,267505,Frankenstraße,8.550995,49.492939,145402,"S-Bf Pfaffeng./Wbl.",8.641153,49.412015
a2657747,2016-10-01T11:38:00,262405,"Langer Schlag",8.509641,49.53113,262001,Freilichtbühne,8.49295,49.53354
4df3ee2a,2016-10-01T11:42:00,413611,Stahlbad,8.649248,49.545129,262607,"Waldhof Nord",8.481222,49.532701
55bb04ff,2016-10-01T12:01:00,257606,Kerschensteinersch.,8.479456,49.546969,133304,Heiligenbergschule,8.679328,49.423398
abb456da,2016-10-01T12:20:00,111602,Klingenweg,8.764106,49.422606,129001,Bonhoeffer-Straße,8.658899,49.411927
86f5bbf3,2016-10-01T13:16:00,252301,Carl-Benz-Stadion,8.502208,49.477829,235106,Weidenwörth,8.463005,49.517851
07adf214,2016-10-01T13:56:00,664901,"Westlich B9",8.354283,49.483492,218205,Stützelstraße,8.40065,49.516477
10b3fd28,2016-10-01T14:07:00,133011,"Gneisenaustraße Süd",8.667384,49.406586,410911,"Weinheim Hauptbahnh.",8.665713,49.551813
4325ff43,2016-10-01T14:37:00,245102,Paradeplatz,8.465612,49.487078,217106,"Oppau Gemeindehaus",8.403949,49.521716
38087665,2016-10-01T15:46:00,344501,Lindenbach,8.806615,49.420508,603606,"Pfingstberg Sportan.",8.524526,49.449436
247911ee,2016-10-01T16:05:00,259802,Carl-Benz-Bad,8.50583,49.52675,250405,Strandbad,8.452871,49.447683
df75722f,2016-10-01T16:08:00,119801,Universitätsplatz,8.70588,49.41104,210802,Südwest-Stadion,8.439917,49.47243
869c6944,2016-10-01T16:22:00,235205,"ABB Tor 8",8.496492,49.509449,243806,Marktplatz,8.467956,49.489699
a254b613,2016-10-01T16:25:00,211401,Luitpoldhafen,8.452679,49.471596,215005,Buschwegbrücke,8.377869,49.495157
24f05316,2016-10-01T16:33:00,131601,Wielandtstr.,8.681559,49.417351,587702,Grillhütte,8.789986,49.488749
5b6b3c32,2016-10-01T16:56:00,127607,"Rohrbach Markt",8.687865,49.380376,261501,"Waldhof Bahnhof",8.481741,49.524788
3d297e5d,2016-10-01T16:57:00,252605,Chiemseestraße,8.53417,49.41716,218906,"Rheingönheim Bahnhof",8.409659,49.447107
fda6b6c1,2016-10-01T16:58:00,238906,Soldnerstraße,8.518041,49.453208,212606,Friedenspark,8.437397,49.484419
812ef031,2016-10-01T17:04:00,242705,Kurpfalzbrücke,8.470685,49.492876,238604,Luzenberg,8.475047,49.516369
1d4b06ba,2016-10-01T17:15:00,128501,Rombachweg,8.74211,49.41576,752005,Walzmühle,8.453902,49.477984
4aa674bc,2016-10-01T17:17:00,130901,Fürstendamm,8.749533,49.42863,121803,Ilse-Krall-Str.,8.673273,49.386564
2ba4598e,2016-10-01T17:39:00,411312,"Freiburger Straße",8.630951,49.545106,188602,Georgi-Marktplatz,8.68889,49.34955
b3029fc4,2016-10-01T17:47:00,261605,Roche,8.469127,49.528416,121802,Ilse-Krall-Str.,8.67353,49.38664
7aec9447,2016-10-01T17:49:00,114408,Betriebshof,8.674817,49.407483,120802,Hagellachstr.,8.672441,49.378186
a06a80e9,2016-10-01T17:52:00,258106,M.-Winterhalter-Ring,8.481388,49.551635,211906,Krappstraße,8.372928,49.455056
83e1b7df,2016-10-01T17:56:00,216006,Rheinhorststraße,8.37124,49.503305,111701,Karl-Christ-Str.,8.76094,49.421163
b741b365,2016-10-01T17:59:00,262607,"Waldhof Nord",8.481222,49.532701,62905,"Neu-Ed. Gewerbegeb.",8.591353,49.453663
52e1a35d,2016-10-01T18:08:00,221909,"BASF Süd",8.435923,49.492479,679401,Montpellierbrücke,8.678343,49.400546
abe16fa6,2016-10-01T18:51:00,254005,Martinskirche,8.527362,49.417622,515206,Paul-Münch-Straße,8.3276,49.475837
94fa9d57,2016-10-01T19:04:00,210402,Schützenstraße,8.448536,49.477076,115702,Fr.-Ebert-Platz,8.698582,49.408381
6312770b,2016-10-01T19:11:00,220606,Baustraße,8.336219,49.475487,232002,Neckarplatt,8.5122,49.488908
26b54489,2016-10-01T19:43:00,120001,Albert-Fritz-Str.,8.67219,49.38286,206905,Bruchwiesenstraße,8.420092,49.469311
833912fe,2016-10-01T19:56:00,256402,Krappmühlstraße,8.481307,49.475312,250105,Rheingoldhalle,8.469911,49.450027
0f4d3f18,2016-10-01T20:10:00,115902,Hans-Böckler-Str.,8.692703,49.405515,664706,"Burbacher Straße",8.394955,49.489951
ac5d621a,2016-10-01T20:47:00,214706,"Am Weidenschlag",8.375809,49.505728,264905,Öllager,8.447084,49.529852
fa1784ef,2016-10-01T21:37:00,206806,Bgm.-Kutterer-Straße,8.442269,49.478257,236712,"Platz der Freundsch.",8.539196,49.518522
730e622b,2016-10-01T22:00:00,204406,Hochfeldstraße,8.408136,49.466174,118401,Rathaus-Bergbahn,8.71191,49.41143
76d16f20,2016-10-01T22:22:00,244606,"Neckarstadt West",8.460684,49.503656,682701,E.-Hübner-Platz,8.687536,49.428153
e672b311,2016-10-01T23:05:00,117403,Marstallstr.,8.70546,49.41297,209008,Marienkirche,8.4299,49.48507
3d88cf27,2016-10-01T23:08:00,256506,"Sandhofer Weg",8.447984,49.558647,253706,Lüderitzstraße,8.534963,49.419147
a57deb40,2016-10-01T23:12:00,254404,"Rheinau Karlsplatz",8.522641,49.438466,128502,Rombachweg,8.74258,49.41577
48c54654,2016-10-01T23:30:00,248905,Helmertstraße,8.513884,49.454212,680706,Wasserwerk,8.364096,49.473646
95dc14e7,2016-10-01T23:32:00,218606,Heinz-Schifferd.-Str,8.384703,49.506546,263906,"Wallstadt Sportanl.",8.542474,49.500639
83e2c846,2016-10-02T00:07:00,128706,"S-Bf Schlierb./Zgh.",8.762564,49.415372,554612,"Im Rott",8.527988,49.507693
224fb1f0,2016-10-02T00:30:00,261201,Altrheinstraße,8.471178,49.525371,254404,"Rheinau Karlsplatz",8.522641,49.438466
c795f98c,2016-10-02T01:04:00,202405,"Edigheim Kirche",8.392126,49.530136,220105,"Am Hüttengraben",8.35398,49.481371
b9043223,2016-10-02T01:41:00,265005,Waldfriedhof,8.49497,49.53582,132402,"Neuer Weg",8.752773,49.41735
61f2066c,2016-10-02T01:43:00,213906,"Mundenheim Nord",8.432754,49.465653,243812,Marktplatz,8.468009,49.489604
c6d1983f,2016-10-02T02:08:00,209007,Marienkirche,8.43043,49.485144,245101,Paradeplatz,8.466229,49.487676
f2a1fac3,2016-10-02T02:14:00,212706,"Mundenheim Bahnhof",8.421978,49.461796,261507,"Waldhof Bahnhof",8.481796,49.52465
84745676,2016-10-02T02:22:00,681006,Heuweg,8.409472,49.473308,554408,Universitätsklinikum,8.48454,49.49357
c7975399,2016-10-02T02:58:00,300301,Stadttor,8.80116,49.39157,169311,"HD Fachhochschule",8.649356,49.415694
d892eb12,2016-10-02T03:03:00,251006,Fardelystraße,8.45769,49.50383,202105,Anglerstraße,8.382927,49.53232
1af74390,2016-10-02T03:35:00,124202,Studentenwohnheim,8.662679,49.418702,262002,Freilichtbühne,8.49327,49.53392
087e71c4,2016-10-02T03:40:00,259406,"Seckenheim Rathaus",8.56367,49.4668,214905,"Bexbacher Straße",8.397213,49.492064
866e5ef5,2016-10-02T03:45:00,204862,Marienkrankenhaus,8.409559,49.459521,554611,"Im Rott",8.527829,49.507916
0665495f,2016-10-02T03:57:00,695901,"Im Bosseldorn",8.682118,49.383799,234605,Ölhafen,8.449072,49.525163
23665011,2016-10-02T04:09:00,11601,"Bad Dürkheim Bahnhof",8.170481,49.461467,554901,MVV-Hochhaus,8.465591,49.49395
d81a5c94,2016-10-02T04:38:00,203736,Rottstückerweg,8.41625,49.50254,554302,Theresienkrankenhaus,8.48108,49.4902
dc2d84aa,2016-10-02T04:48:00,218606,Heinz-Schifferd.-Str,8.384703,49.506546,257306,"Graudenzer Linie",8.481061,49.539378
09c6ea61,2016-10-02T04:54:00,131801,"Langer Kirschbaum",8.751355,49.459024,112401,Haselnussweg,8.702652,49.37454
035fa783,2016-10-02T05:12:00,299901,Melacpass,8.78191,49.39281,298602,"Neckargemünd Bf",8.78721,49.3941
6f94168d,2016-10-02T05:16:00,246705,Teufelsbrücke,8.45712,49.49454,114302,Bethanienkrankenhaus,8.690218,49.392596
dbac4030,2016-10-02T05:18:00,299701,"Kümmelbacher Hof",8.776765,49.392932,123601,Mönchhofschule,8.687235,49.417312
b554dfdf,2016-10-02T05:38:00,600705,Verbindungskanal,8.451679,49.500889,231905,Liebfrauenstraße,8.523449,49.488439
839cf3b4,2016-10-02T06:16:00,231306,Andreas-Hofer-Straße,8.525368,49.490476,114607,Bismarckplatz,8.69285,49.4098
e06cf093,2016-10-02T07:34:00,246205,Schloss,8.462137,49.484659,128403,"S-Bf Orthopädie",8.774355,49.409889
91330c4d,2016-10-02T07:55:00,282906,Kirchwaldstraße,8.49126,49.53495,555301,Schönau,8.474265,49.546796
dffa7e8d,2016-10-02T08:07:00,253202,"Mülheimer Straße",8.531716,49.427847,109301,Gutleuthofweg,8.76423,49.414296
b1370c17,2016-10-02T08:14:00,554406,Universitätsklinikum,8.484224,49.493404,235708,Lanzvilla,8.486977,49.485062
196b0ce0,2016-10-02T08:28:00,126103,Stotz,8.643786,49.402613,714012,"Großsachsen Süd",8.65596,49.509324
25501b32,2016-10-02T08:45:00,209305,Pfalzbau,8.445587,49.480044,559001,Schafweide,8.479178,49.494829
2f65798d,2016-10-02T08:47:00,233405,"Friedr. Südbahnhof",8.57257,49.438666,555520,Eugen-Neter-Schule,8.492711,49.56596
18fb7943,2016-10-02T08:50:00,262106,Freyaplatz,8.492148,49.529657,695901,"Im Bosseldorn",8.682118,49.383799
77d4ca34,2016-10-02T08:54:00,235105,Weidenwörth,8.462908,49.517707,215305,Froschlache,8.391234,49.491626
95b0db13,2016-10-02T09:26:00,259407,"Seckenheim Rathaus",8.56374,49.46675,681006,Heuweg,8.409472,49.473308
c336a611,2016-10-02T09:27:00,203105,"Friesenheim Ost",8.420821,49.501083,114405,Betriebshof,8.675556,49.407956
516287b6,2016-10-02T09:29:00,262601,"Waldhof Nord",8.48143,49.53062,251706,Grünewaldstraße,8.5093,49.47833
a8814354,2016-10-02T09:39:00,248702,Friedrichstraße,8.495519,49.45324,209302,Pfalzbau,8.44544,49.480024
b66d6a99,2016-10-02T09:40:00,115802,Gneisenaustr.,8.667713,49.408531,474305,"Oppau Friedhof",8.408725,49.5219
07d7b8c1,2016-10-02T10:49:00,259802,Carl-Benz-Bad,8.50583,49.52675,215605,"Im Schelmenherschel",8.375452,49.500984
4a459862,2016-10-02T10:52:00,231501,Feudenheim,8.53763,49.48404,132701,"Stift Neuburg",8.735532,49.419226
14e5ced4,2016-10-02T11:07:00,211201,Heinrich-Ries-Halle,8.42693,49.487532,248706,Friedrichstraße,8.494335,49.453781
475891b9,2016-10-02T11:11:00,119412,Stadtwerke,8.682359,49.405027,243312,Lessingstraße,8.485415,49.489241
cfb14907,2016-10-02T11:13:00,208606,Kaiser-Wilhelm-Str.,8.44895,49.481669,252208,Neuostheim,8.523403,49.477218
32c39063,2016-10-02T11:24:00,238608,Luzenberg,8.475291,49.516266,213908,"Mundenheim Nord",8.431917,49.465454
2be484ac,2016-10-02T11:44:00,131901,Löwen,8.754152,49.444626,299902,Melacpass,8.78147,49.392871
99e98e01,2016-10-02T12:11:00,131701,Kreuzgrundweg,8.747678,49.431677,133401,Sandwingert,8.64437,49.41897
8ab10bfc,2016-10-02T12:42:00,554211,Kunsthalle,8.473033,49.482936,301206,Apostelkirche,8.432388,49.487471
8c90f65c,2016-10-02T13:10:00,413212,Rosenbrunnen,8.661009,49.54141,247502,Wasserturm,8.47382,49.484668
638ead38,2016-10-02T13:19:00,250701,"Neckarau West",8.481916,49.455663,204405,Hochfeldstraße,8.408183,49.466315
6493fb15,2016-10-02T14:22:00,125401,Kranichweg,8.641465,49.402066,130411,"Wiebl. Taubenfeld",8.642431,49.428779
93bb46ff,2016-10-02T15:05:00,215308,Froschlache,8.392777,49.490846,249505,Mallaustraße,8.509996,49.4542
39f8a863,2016-10-02T15:32:00,213005,"Mundenheim Friedhof",8.416871,49.468181,232306,"Am Rheinauer See",8.529959,49.416267
1ca3e17d,2016-10-02T15:32:00,236201,Speckweg,8.49903,49.5206,256305,Krähenflügel,8.456694,49.55131
59089248,2016-10-02T15:33:00,265001,Waldfriedhof,8.49453,49.53586,237606,"Käfertal Süd",8.505925,49.5072
bbe8ab8d,2016-10-02T15:34:00,218605,Heinz-Schifferd.-Str,8.384702,49.506619,259506,Schlittweg,8.543518,49.455858
40686d37,2016-10-02T15:49:00,124802,"Ziegelh. Friedhof",8.760851,49.419649,260901,"Vogelstang West",8.532033,49.50603
a64d561b,2016-10-02T15:52:00,132502,Rainweg,8.746769,49.430216,204861,Marienkrankenhaus,8.409136,49.459558
0196dc35,2016-10-02T16:06:00,641101,Mühltalstr.,8.69783,49.43099,264312,"Wallstadt Ost",8.553981,49.497288
8f336cf6,2016-10-02T16:07:00,118401,Rathaus-Bergbahn,8.71191,49.41143,113003,Mombertplatz,8.704279,49.369079
ab9cda42,2016-10-02T16:26:00,569806,"Dortmunder Straße",8.515353,49.418782,264602,Stollenwörth,8.471935,49.450599
1a8d0a94,2016-10-02T16:29:00,131503,"Kleingemünder Str.",8.76291,49.41757,127607,"Rohrbach Markt",8.687865,49.380376
26258637,2016-10-02T16:59:00,664705,"Burbacher Straße",8.394218,49.490126,679402,Montpellierbrücke,8.67874,49.40079
c0f31ee2,2016-10-02T17:08:00,210505,Shellhaus,8.446341,49.470011,131802,"Langer Kirschbaum",8.751243,49.459075
eb8003f7,2016-10-02T17:09:00,252101,"Duale Hochschule",8.534086,49.475326,246005,Sandgewann,8.483197,49.509982
fa4be3dc,2016-10-02T17:43:00,124702,"Im Buschgewann",8.648679,49.397416,603105,"Innerer Heckweg",8.563189,49.459265
d46e490a,2016-10-02T17:54:00,301206,Apostelkirche,8.432388,49.487471,554406,Universitätsklinikum,8.484224,49.493404
b3082d09,2016-10-02T17:59:00,256701,Sandhofen,8.449414,49.542136,600606,Popakademie,8.457635,49.497049
f4e199c1,2016-10-02T18:25:00,238806,Diffenebrücke,8.472348,49.516192,203101,"Friesenheim Ost",8.421656,49.501428
b5059e23,2016-10-02T18:29:00,118102,Peterskirche,8.705365,49.409044,110201,"Villa Schmeil",8.73227,49.4159
8bdca416,2016-10-02T18:45:00,238602,Luzenberg,8.476495,49.516553,281401,"Maxdorf Süd",8.289276,49.476377
f58199c7,2016-10-02T18:45:00,225806,Fahrlach,8.498859,49.473411,113612,Hans-Thoma-Platz,8.6833,49.42799
53deb06d,2016-10-02T18:50:00,247502,Wasserturm,8.47382,49.484668,257905,Sachsenstraße,8.545646,49.507322
128f4eb5,2016-10-02T19:04:00,110801,"Am Bächenbuckel",8.76088,49.42319,206008,BASF,8.432609,49.494946
23a3d264,2016-10-02T19:04:00,240106,Kunstverein,8.487515,49.479588,250806,Hafenpark,8.46717,49.51059
bb965539,2016-10-02T20:15:00,231501,Feudenheim,8.53763,49.48404,125403,Kranichweg,8.641298,49.401418
3f291403,2016-10-02T20:39:00,255105,Pigagestraße,8.528146,49.414017,253105,"Essener Straße",8.508045,49.421177
ba370d83,2016-10-02T20:45:00,262206,"Glücksburger Weg",8.486268,49.536407,121302,Mathilde-Vogt-Haus,8.660681,49.381115
c8a44e0a,2016-10-02T20:48:00,210406,Schützenstraße,8.447742,49.47768,257106,"Rastenburger Straße",8.468393,49.550792
c7ba824f,2016-10-02T21:26:00,119462,Stadtwerke,8.68284,49.405512,263006,Waldstraße,8.48882,49.52832
62690a8d,2016-10-02T21:49:00,115801,Gneisenaustr.,8.668805,49.409301,203506,Rheinfeldstraße,8.424836,49.49925
133abb86,2016-10-02T21:53:00,211706,"Maudach Gemeindehaus",8.38297,49.45507,220301,Ruchheim,8.32755,49.478501
c8635804,2016-10-02T22:20:00,714012,"Großsachsen Süd",8.65596,49.509324,123312,Kußmaulstr.,8.69055,49.419003
067876da,2016-10-02T22:25:00,249806,Matthäuskirche,8.488542,49.453959,113603,Hans-Thoma-Platz,8.68305,49.427369
30c96ecd,2016-10-02T22:31:00,119501,Sternwarte,8.72739,49.40078,664805,Erich-Kästner-Straße,8.368547,49.485738
e73f03d4,2016-10-02T22:34:00,240006,Bunsenstraße,8.456081,49.501859,249805,Matthäuskirche,8.488046,49.454015
63dad10c,2016-10-02T22:59:00,250105,Rheingoldhalle,8.469911,49.450027,240805,"Groß-Gerauer Straße",8.442349,49.548821
17a333c3,2016-10-02T23:08:00,231505,Feudenheim,8.53782,49.48411,215305,Froschlache,8.391234,49.491626
624b1c67,2016-10-02T23:41:00,260106,"Im Wohlbühl",8.53024,49.509383,120702,"Kirchheim Friedhof",8.659324,49.375877
d50afc9a,2016-10-03T00:10:00,247504,Wasserturm,8.47382,49.484705,555402,"Schönau Siedlung",8.47346,49.53988
30230ac6,2016-10-03T00:31:00,204405,Hochfeldstraße,8.408183,49.466315,407711,Hohensachsen,8.655371,49.520176
a6358ac6,2016-10-03T00:33:00,250720,"Neckarau West",8.482298,49.455672,264505,"Wallstadt West",8.543823,49.500944
9a854cdb,2016-10-03T00:33:00,124301,Zoo,8.663488,49.415242,244206,Moselstraße,8.483479,49.498841
9a4be754,2016-10-03T01:47:00,348212,"Schriesheim Süd",8.6635,49.463879,259505,Schlittweg,8.543745,49.455891
604735e5,2016-10-03T02:07:00,264311,"Wallstadt Ost",8.553354,49.497506,128502,Rombachweg,8.74258,49.41577
088cc711,2016-10-03T02:09:00,225801,Fahrlach,8.498257,49.473513,209405,Fieskostraße,8.37298,49.48944
96a3e780,2016-10-03T02:18:00,246006,Sandgewann,8.483536,49.509916,302802,"Technoseum Süd",8.494106,49.475814
4e63d588,2016-10-03T02:20:00,215506,Hollergärten,8.384702,49.489966,680905,Berufsbildungszentr.,8.407648,49.475707
4dced04e,2016-10-03T02:21:00,119201,"St. Vinc.-Krankenhaus",8.697252,49.412018,62206,Schillerstraße,8.619783,49.442925
7a74adaf,2016-10-03T02:36:00,206006,BASF,8.43027,49.49586,237406,Sonnenschein,8.50514,49.521834
3836537d,2016-10-03T02:50:00,209806,"Bayreuther Straße",8.419753,49.477777,244006,Möhlstraße,8.486951,49.474894
b8327a65,2016-10-03T02:52:00,231706,"Feudenheim Kirche",8.53145,49.486566,308401,Hatschekstr.,8.675125,49.362751
ca7c275e,2016-10-03T02:56:00,206006,BASF,8.43027,49.49586,850601,"Im Heimgarten",8.643168,49.39546
3b01db58,2016-10-03T03:03:00,115102,Czernybrücke,8.671285,49.406868,386512,"Viernheim Tivoli",8.565693,49.528292
634aa951,2016-10-03T03:14:00,134902,Schulbergweg,8.7636,49.41854,217906,Ostringplatz,8.389915,49.532613
e2474f99,2016-10-03T03:52:00,127402,"Ortenauer Str.",8.68779,49.376861,112002,"Am Götzenberg",8.701371,49.372022
07791380,2016-10-03T04:27:00,283006,"Feuerwache Nord",8.5082,49.51753,209620,"LU Rathaus",8.441228,49.484095
179ef2f6,2016-10-03T05:07:00,130411,"Wiebl. Taubenfeld",8.642431,49.428779,122302,"Alte Brücke Nord",8.708806,49.415247
fa4fc2cc,2016-10-03T05:11:00,116701,"MPI Kernphysik",8.707654,49.388892,130002,Finanzamt,8.642472,49.42222
ba611867,2016-10-03T05:11:00,221806,Bliesstraße,8.422357,49.479226,241601,Handelshafen,8.453985,49.491806
99d74def,2016-10-03T05:12:00,233405,"Friedr. Südbahnhof",8.57257,49.438666,247505,Wasserturm,8.474874,49.484997
faabb55b,2016-10-03T05:25:00,640902,Turnerbrunnen,8.705358,49.431746,211506,"Maudach Ortsmitte",8.379173,49.454158
27a1a07b,2016-10-03T05:35:00,127820,"Rohrbach Süd",8.68939,49.36581,253105,"Essener Straße",8.508045,49.421177
70fec53f,2016-10-03T05:48:00,256707,Sandhofen,8.449525,49.541985,259112,"Seckenheim OEG-Bf.",8.569998,49.461836
45d372f3,2016-10-03T05:54:00,248105,"Neckarau Bahnhof",8.494434,49.455453,204305,Abteistraße,8.40713,49.46826
3fe8b8ba,2016-10-03T05:58:00,256002,Hanfstraße,8.450919,49.538613,587702,Grillhütte,8.789986,49.488749
c934b350,2016-10-03T06:07:00,136401,"Peterstaler Str.",8.749271,49.43475,414613,"Weinheim Alt. OEG-Bf",8.66504,49.54923
6ce2d03f,2016-10-03T06:11:00,258908,Kapellenplatz,8.55568,49.463275,232306,"Am Rheinauer See",8.529959,49.416267
9cd3c0b2,2016-10-03T06:16:00,215805,Notwende,8.37624,49.50901,243812,Marktplatz,8.468009,49.489604
f68ca517,2016-10-03T06:49:00,130202,"Wieblingen Mitte",8.646276,49.423471,220306,Ruchheim,8.327653,49.478792
3ad73727,2016-10-03T07:28:00,207902,"LU Klinikum",8.423052,49.490221,245605,"St. Hildegard",8.50843,49.50388
67380ccc,2016-10-03T07:31:00,214606,Adolf-Kolping-Straße,8.362233,49.494804,233906,Einsteinstraße,8.459836,49.519302
7dc445ae,2016-10-03T08:02:00,263511,"Wallstadt Bahnhof",8.548714,49.498805,246305,Therese-Blase-Straße,8.526724,49.503069
02ff734a,2016-10-03T08:10:00,257305,"Graudenzer Linie",8.481112,49.539356,242506,Jungbuschbrücke,8.461707,49.499262
d0919fd1,2016-10-03T08:21:00,215206,"Oggersheim Friedhof",8.367613,49.497243,670905,"Neckarh. Friedhof",8.598075,49.460948
17415024,2016-10-03T08:24:00,211201,Heinrich-Ries-Halle,8.42693,49.487532,115901,Hans-Böckler-Str.,8.692477,49.405481
15a5df59,2016-10-03T09:04:00,752005,Walzmühle,8.453902,49.477984,600506,Akademiestraße,8.45682,49.492495
2d3c0b34,2016-10-03T09:06:00,127402,"Ortenauer Str.",8.68779,49.376861,204002,Schopenhauerstraße,8.426857,49.497025
cfe4df76,2016-10-03T09:31:00,253120,"Essener Straße",8.507935,49.421279,233405,"Friedr. Südbahnhof",8.57257,49.438666
ec995c56,2016-10-03T09:45:00,212406,Achtmorgenstraße,8.41932,49.465819,234806,Rheinrottstraße,8.454613,49.511875
341a9275,2016-10-03T10:59:00,205301,Ammoniakstraße,8.41067,49.504922,114607,Bismarckplatz,8.69285,49.4098
28bb65d2,2016-10-03T11:08:00,212606,Friedenspark,8.437397,49.484419,258105,M.-Winterhalter-Ring,8.481247,49.551121
ba3e285e,2016-10-03T11:12:00,128705,"S-Bf Schlierb./Zgh.",8.76131,49.41553,214106,Schillerschule,8.42772,49.459721
2970559f,2016-10-03T11:19:00,131902,Löwen,8.75371,49.444105,213402,Hoheneckenstraße,8.426623,49.456639
9f17b7fe,2016-10-03T11:27:00,640502,Bachlenz,8.687984,49.430358,242602,Konrad-Adenauer-Br.,8.458577,49.482392
fce50f06,2016-10-03T11:57:00,117802,Neckarspitze,8.664462,49.409836,250005,Windeckstraße,8.468614,49.474535
06d4d8b9,2016-10-03T12:02:00,269406,"Wallstadt Mitte",8.546396,49.496333,212705,"Mundenheim Bahnhof",8.421602,49.461573
58589be0,2016-10-03T12:15:00,257020,Blumenau,8.479401,49.561598,271002,H.-Gutzmann-Schule,8.50128,49.52322
4dc15e13,2016-10-03T12:23:00,254205,Münchwälderstraße,8.534476,49.421679,254401,"Rheinau Karlsplatz",8.522985,49.439035
bb017a34,2016-10-03T12:28:00,116602,"S-Bf Altstadt",8.719908,49.415045,243706,Zielstraße,8.500204,49.505486
ed9a1daa,2016-10-03T12:44:00,211102,Wittelsbachplatz,8.444142,49.475804,254495,"Rheinau Karlsplatz",8.522798,49.438967
b30375e7,2016-10-03T13:02:00,246607,Tattersall,8.475188,49.481559,114504,Bierhelderhof,8.70504,49.39029
0184979a,2016-10-03T13:27:00,263605,"Osterburker Straße",8.547069,49.493904,234305,"Rotterdamer S. Mitte",8.51421,49.425847
bc01cf08,2016-10-03T13:30:00,124502,Hans-Bunte-Str.,8.640388,49.406744,240201,Dalbergstraße,8.461299,49.493674
3508ce03,2016-10-03T13:50:00,695901,"Im Bosseldorn",8.682118,49.383799,425602,"Schwetzinger Terrass",8.67164,49.39946
282e9742,2016-10-03T13:57:00,244902,"Neuer Meßplatz",8.470001,49.505361,574202,"Dossenheim Nord",8.667083,49.453463
7032cb28,2016-10-03T14:54:00,232101,Neckarstraße,8.53281,49.484298,250005,Windeckstraße,8.468614,49.474535
4d5b74d8,2016-10-03T15:01:00,120302,"S-Bf Kirchh./Rohrb.",8.675207,49.378778,273406,Robert-Lauth-Straße,8.383026,49.509093
efaedbb5,2016-10-03T15:03:00,216602,"Zum Guten Hirten",8.386845,49.488341,254705,"Rohrhofer Straße",8.525752,49.420657
f0fd973e,2016-10-03T15:06:00,236202,Speckweg,8.49938,49.52106,250602,Voltastraße,8.490272,49.461073
0b3329c4,2016-10-03T15:08:00,211106,Wittelsbachplatz,8.443354,49.475108,221964,"BASF Süd",8.435993,49.493145
6d83cf91,2016-10-03T16:09:00,602905,O.-Bauder-Sportanl.,8.550876,49.466228,126401,Englerstr.,8.682337,49.36696
089ac133,2016-10-03T16:11:00,116901,"Kohlhof Fachklinik",8.735155,49.38931,238302,Lindenhofplatz,8.467969,49.476886
449ee177,2016-10-03T16:14:00,245125,Paradeplatz,8.46638,49.48784,208101,"LU Hauptfriedhof",8.424069,49.483946
750d5f6c,2016-10-03T16:15:00,237705,Gebweilerstraße,8.57151,49.43788,129402,"Grenzhöfer Weg",8.644927,49.426487
db7a8762,2016-10-03T16:19:00,231906,Liebfrauenstraße,8.523699,49.488391,251601,Kopernikusstraße,8.477642,49.478401
c275dc5b,2016-10-03T16:56:00,123601,Mönchhofschule,8.687235,49.417312,202405,"Edigheim Kirche",8.392126,49.530136
850cd900,2016-10-03T16:58:00,214705,"Am Weidenschlag",8.37592,49.50572,257606,Kerschensteinersch.,8.479456,49.546969
f02c103b,2016-10-03T17:08:00,207806,Halberg,8.451111,49.477152,555302,Schönau,8.47426,49.54725
d7d03de2,2016-10-03T17:12:00,207306,Feierabendhaus,8.427946,49.492834,210205,"Friesenheim Mitte",8.419063,49.498279
56569e47,2016-10-03T17:28:00,113512,Kapellenweg,8.68637,49.42505,569806,"Dortmunder Straße",8.515353,49.418782
22ae2123,2016-10-03T17:32:00,241308,Bonifatiuskirche,8.48864,49.49916,261206,Altrheinstraße,8.471197,49.525592
7c6a1086,2016-10-03T17:41:00,240611,Fernmeldeturm,8.493401,49.486875,640402,Tiefburg,8.68559,49.42769
13fbd626,2016-10-03T17:58:00,265406,"Rastatter Straße",8.553991,49.466779,127701,Saarstr.,8.686426,49.385744
23c0f2cd,2016-10-03T18:11:00,102301,Forstquelle,8.70632,49.38135,134902,Schulbergweg,8.7636,49.41854
abd5c075,2016-10-03T18:38:00,265006,Waldfriedhof,8.49486,49.53586,260105,"Im Wohlbühl",8.529864,49.509045
7553d8c3,2016-10-03T18:41:00,236905,"Neues Leben",8.502937,49.51926,213906,"Mundenheim Nord",8.432754,49.465653
3511b02e,2016-10-03T19:28:00,302511,Ulanenweg,8.506081,49.467629,245405,Bäckerweg,8.507356,49.505025
b018f1a5,2016-10-03T19:37:00,238412,Meeräckerplatz,8.471914,49.468988,250012,Windeckstraße,8.468792,49.473892
115bb889,2016-10-03T19:40:00,125403,Kranichweg,8.641298,49.401418,203306,Lagewiesenstraße,8.411248,49.493664
8b954336,2016-10-03T19:49:00,126102,Stotz,8.644253,49.402612,122903,Jahnstr.,8.675475,49.412857
5a38fadc,2016-10-03T20:00:00,248005,August-Bebel-Straße,8.48038,49.4667,236006,Thomashaus,8.506308,49.466557
1738d104,2016-10-03T20:30:00,132001,"Mittlerer Rainweg",8.746704,49.426098,262205,"Glücksburger Weg",8.4853,49.536104
bd75391b,2016-10-03T20:56:00,121903,"Kirchheim Rathaus",8.664664,49.377103,170001,"Medizinische Klinik",8.666432,49.414644
37863ef9,2016-10-03T21:08:00,216502,Wilhelm-Tell-Straße,8.370006,49.490381,264005,"Wallstadt Wasserturm",8.544324,49.499258
3a8018d2,2016-10-03T21:13:00,208901,Ludwigstraße,8.448643,49.482905,232805,Langlachweg,8.568925,49.447228
3debbba6,2016-10-03T21:16:00,249701,Markuskirche,8.475596,49.464621,255701,"Bürstadter Straße",8.453306,49.535219
4384bdc6,2016-10-03T21:18:00,118011,Ochsenkopf,8.652087,49.409559,231507,Feudenheim,8.53847,49.48407
ac31ba93,2016-10-03T21:48:00,243212,"Lange Rötterstraße",8.48691,49.49617,129201,"Wiebl. Evang. Kirche",8.647624,49.426011
b1560313,2016-10-03T22:09:00,238806,Diffenebrücke,8.472348,49.516192,262206,"Glücksburger Weg",8.486268,49.536407
961e11f1,2016-10-03T22:21:00,112801,Forum,8.70555,49.364086,680906,Berufsbildungszentr.,8.407592,49.475834
1e649bab,2016-10-03T22:57:00,680705,Wasserwerk,8.364178,49.473717,233905,Einsteinstraße,8.459787,49.519372
145d3b71,2016-10-03T22:58:00,252805,Fr.-Nansen-Weg,8.540878,49.412715,239606,Jakobuskirche,8.453387,49.543839
24a50c1f,2016-10-03T23:17:00,212505,"Am Schwanen",8.429125,49.46292,116006,"HD Hauptbahnhof",8.6765,49.4048
eaa5bb56,2016-10-03T23:23:00,215106,Pettenkoferstraße,8.422367,49.486024,128601,Teufelskanzelweg,8.73174,49.4172
6f6c9bfc,2016-10-03T23:25:00,62705,"Neckarh. West",8.589528,49.469413,253120,"Essener Straße",8.507935,49.421279
5079a5c6,2016-10-03T23:28:00,254404,"Rheinau Karlsplatz",8.522641,49.438466,126706,"Freiburger Str.",8.687936,49.373448
bbd84518,2016-10-03T23:32:00,209205,Ebereschenweg,8.401084,49.466626,207506,Goerdelerplatz,8.431757,49.489317
79889b16,2016-10-03T23:37:00,231602,Hölderlinstraße,8.52962,49.496388,251802,Hans-Thoma-Straße,8.524139,49.474742
1e2bcba2,2016-10-04T00:01:00,263006,Waldstraße,8.48882,49.52832,209605,"LU Rathaus",8.440965,49.484255
238b8e39,2016-10-04T00:03:00,114404,Betriebshof,8.674832,49.407513,238603,Luzenberg,8.475233,49.515999
7b5d94ea,2016-10-04T00:05:00,414613,"Weinheim Alt. OEG-Bf",8.66504,49.54923,236305,Habichtplatz,8.508319,49.512981
c18091ae,2016-10-04T00:07:00,130203,"Wieblingen Mitte",8.645783,49.423532,237805,"Wachenheimer Straße",8.507758,49.498559
65bbf170,2016-10-04T00:14:00,133601,"Kleingemünder S. Ost",8.7656,49.41645,214805,"Oggersheim Bahnhof",8.381436,49.492882
5627aea0,2016-10-04T00:40:00,131901,Löwen,8.754152,49.444626,116803,Seegarten,8.69221,49.40716
8cb169de,2016-10-04T00:53:00,209205,Ebereschenweg,8.401084,49.466626,687705,"Strandbad Blies",8.41541,49.475622
4c48707c,2016-10-04T01:37:00,258908,Kapellenplatz,8.55568,49.463275,235205,"ABB Tor 8",8.496492,49.509449
807d2676,2016-10-04T01:44:00,202606,Kranichstraße,8.385151,49.536061,132102,Mühldamm,8.751545,49.425364
cf5c1707,2016-10-04T01:52:00,78806,"FT Kugelfang",8.37559,49.53635,555702,Blücherstraße,8.527753,49.48734
894410e1,2016-10-04T02:21:00,238401,Meeräckerplatz,8.471359,49.469235,255302,Waldseestraße,8.5288,49.431534
7e330d56,2016-10-04T02:48:00,247508,Wasserturm,8.473874,49.483333,112802,Forum,8.705679,49.36408
8a358102,2016-10-04T03:16:00,614001,"Quartieram Turm",8.682125,49.382006,239605,Jakobuskirche,8.454017,49.544013
7090b233,2016-10-04T03:34:00,554722,"Käfertal Bahnhof",8.518572,49.510057,247006,Ulmenweg,8.49323,49.50734
e8d47431,2016-10-04T03:36:00,254401,"Rheinau Karlsplatz",8.522985,49.439035,239105,"Stolberger Straße",8.474073,49.517846
bd9c94b9,2016-10-04T03:42:00,554803,"Alte Feuerwache",8.47379,49.49612,240401,Exerzierplatz,8.497362,49.503161
1ba091a9,2016-10-04T03:49:00,202406,"Edigheim Kirche",8.392655,49.52971,220105,"Am Hüttengraben",8.35398,49.481371
b4869233,2016-10-04T03:51:00,127701,Saarstr.,8.686426,49.385744,255301,Waldseestraße,8.528454,49.431997
6072bfe0,2016-10-04T04:00:00,231806,"Feudenheim Kreuz",8.536764,49.486011,121103,"Königsberger Str.",8.666457,49.384265
97e29436,2016-10-04T04:18:00,209010,Marienkirche,8.429863,49.485493,119302,Stadtbücherei,8.68601,49.4061
29e535fd,2016-10-04T04:36:00,675505,"Universität West",8.457501,49.487646,125401,Kranichweg,8.641465,49.402066
029dc97e,2016-10-04T05:21:00,214705,"Am Weidenschlag",8.37592,49.50572,604105,"MA Rathaus/REM",8.462821,49.488982
25289897,2016-10-04T05:28:00,234805,Rheinrottstraße,8.454407,49.511661,129902,Lerchenbuckel,8.653234,49.41685
c185b0f7,2016-10-04T05:39:00,127606,"Rohrbach Markt",8.687336,49.380516,234805,Rheinrottstraße,8.454407,49.511661
375d793c,2016-10-04T05:45:00,261605,Roche,8.469127,49.528416,299601,Herrenweg,8.80333,49.38114
79c2987c,2016-10-04T05:53:00,208101,"LU Hauptfriedhof",8.424069,49.483946,249706,Markuskirche,8.475127,49.464991
4b00d76a,2016-10-04T05:53:00,127203,Kolbenzeil,8.681573,49.37381,209010,Marienkirche,8.429863,49.485493
342f385b,2016-10-04T06:00:00,204862,Marienkrankenhaus,8.409559,49.459521,210101,Rottstraße,8.448263,49.474054
75f74bb4,2016-10-04T06:21:00,62206,Schillerstraße,8.619783,49.442925,127701,Saarstr.,8.686426,49.385744
f58abe71,2016-10-04T06:53:00,554501,"Mannheimer Straße",8.512372,49.507927,61706,Thomas-Mann-Straße,8.600415,49.466345
edc13ac8,2016-10-04T06:58:00,263005,Waldstraße,8.48872,49.52846,255105,Pigagestraße,8.528146,49.414017
d0ba4dfc,2016-10-04T07:20:00,217601,"Oppau Süd",8.40795,49.51254,233335,Lilli-Gräber-Halle,8.56979,49.44248
d5e4d068,2016-10-04T07:24:00,231105,Adolf-Damaschke-Ring,8.521223,49.493217,385311,"Viernheim Ost",8.589402,49.537459
2fe25c01,2016-10-04T07:33:00,114801,"Schönauer Abtweg",8.759832,49.42072,251106,Lochgärten,8.499536,49.469954
e075d405,2016-10-04T08:13:00,262705,Papyrus,8.460079,49.533402,209506,Raschig,8.439649,49.465974
bef353a1,2016-10-04T08:13:00,127502,"Rastatter Str.",8.678691,49.373966,214906,"Bexbacher Straße",8.398313,49.492066
ec2e8028,2016-10-04T08:16:00,204305,Abteistraße,8.40713,49.46826,115502,Feuerbachstr.,8.686432,49.393502
0d13e0f5,2016-10-04T08:31:00,217706,Karl-Dillinger-Str.,8.380463,49.501448,113002,Mombertplatz,8.704051,49.369554
aa982c70,2016-10-04T09:06:00,259802,Carl-Benz-Bad,8.50583,49.52675,132802,"Steinbacher Tal",8.753788,49.422536
049c682f,2016-10-04T09:10:00,62705,"Neckarh. West",8.589528,49.469413,249805,Matthäuskirche,8.488046,49.454015
94a24d22,2016-10-04T09:18:00,554406,Universitätsklinikum,8.484224,49.493404,554001,Franz-Sigel-Straße,8.476956,49.462779
e53e4bd3,2016-10-04T09:19:00,133202,Augustinum,8.703578,49.362937,262002,Freilichtbühne,8.49327,49.53392
a439951d,2016-10-04T09:37:00,615906,Holländerstraße,8.509025,49.428139,251006,Fardelystraße,8.45769,49.50383
6d3f8b62,2016-10-04T09:43:00,130412,"Wiebl. Taubenfeld",8.642799,49.428327,202406,"Edigheim Kirche",8.392655,49.52971
504ac82d,2016-10-04T10:20:00,252606,Chiemseestraße,8.534074,49.417112,209705,Rhein-Galerie,8.447682,49.484802
54cc0852,2016-10-04T10:32:00,119202,"St. Vinc.-Krankenhaus",8.697311,49.412085,664901,"Westlich B9",8.354283,49.483492
fade88db,2016-10-04T11:13:00,209602,"LU Rathaus",8.443208,49.485195,203105,"Friesenheim Ost",8.420821,49.501083
ff6e50c9,2016-10-04T11:20:00,554302,Theresienkrankenhaus,8.48108,49.4902,587502,"Vorderheubach Mitte",8.776957,49.489896
fa9d7613,2016-10-04T11:29:00,730305,Kolpingstraße,8.482553,49.486786,345001,Sparkasse,8.80936,49.434879
46b925fb,2016-10-04T11:31:00,118702,"Römerkreis Süd",8.68466,49.40476,113001,Mombertplatz,8.70425,49.36908
6af020d6,2016-10-04T12:16:00,107901,"Im Hofert",8.768975,49.412051,210405,Schützenstraße,8.447828,49.477658
35d52183,2016-10-04T12:32:00,129601,"Käfertaler Str.",8.644743,49.430176,217601,"Oppau Süd",8.40795,49.51254
d52a4879,2016-10-04T13:04:00,258005,"Tilsiter Straße",8.467873,49.552423,250005,Windeckstraße,8.468614,49.474535
ffeb85da,2016-10-04T13:39:00,242106,Herzogenriedstraße,8.471474,49.508423,614502,Kopfklinik,8.66688,49.4192
fae88672,2016-10-04T13:55:00,239205,Sporwörthplatz,8.518898,49.442819,264511,"Wallstadt West",8.543849,49.500533
ee149764,2016-10-04T14:10:00,206601,"Berliner Platz",8.4509,49.47964,248905,Helmertstraße,8.513884,49.454212
dd22e68e,2016-10-04T14:48:00,113902,"Alte Brücke",8.710681,49.41361,121501,"Obere Seegasse",8.669186,49.377294
1410857c,2016-10-04T15:00:00,204505,"Kallstadter Straße",8.401517,49.464235,258805,Hochstätt,8.539355,49.453211
f3bc9a00,2016-10-04T15:07:00,261202,Altrheinstraße,8.470917,49.525856,133201,Augustinum,8.703482,49.362895
f0b9289c,2016-10-04T15:50:00,254205,Münchwälderstraße,8.534476,49.421679,122301,"Alte Brücke Nord",8.709199,49.415282
3f6844b7,2016-10-04T15:50:00,114001,"Alter Kohlhof",8.731112,49.388275,225802,Fahrlach,8.498913,49.473231
09ff777f,2016-10-04T15:58:00,231505,Feudenheim,8.53782,49.48411,252510,"Rheinau Bahnhof",8.535634,49.424074
477fd081,2016-10-04T16:01:00,554002,Franz-Sigel-Straße,8.477205,49.462256,238302,Lindenhofplatz,8.467969,49.476886
87442831,2016-10-04T16:16:00,608005,"Am Salzkai",8.460415,49.496694,262705,Papyrus,8.460079,49.533402
84a5398a,2016-10-04T16:21:00,236606,Maximilianstraße,8.485739,49.482564,272902,Jugendverkehrsschule,8.49349,49.51179
4d213c93,2016-10-04T16:30:00,205108,Schlesierstraße,8.40519,49.45203,238610,Luzenberg,8.47587,49.51646
2137a3d8,2016-10-04T17:10:00,256707,Sandhofen,8.449525,49.541985,603105,"Innerer Heckweg",8.563189,49.459265
91eb44d9,2016-10-04T17:12:00,125203,Henkel-Teroson-Str.,8.652259,49.405695,133011,"Gneisenaustraße Süd",8.667384,49.406586
92e8ca62,2016-10-04T17:47:00,119501,Sternwarte,8.72739,49.40078,640701,Heiligenbergstr.,8.69381,49.429706
6a05e15a,2016-10-04T17:54:00,235906,Boveristraße,8.502084,49.504572,128501,Rombachweg,8.74211,49.41576
807d758a,2016-10-04T17:57:00,233905,Einsteinstraße,8.459787,49.519372,240005,Bunsenstraße,8.456483,49.501921
c1164c2f,2016-10-04T18:05:00,212905,Feuerwache,8.435966,49.464603,235205,"ABB Tor 8",8.496492,49.509449
bcfb9bba,2016-10-04T18:14:00,246305,Therese-Blase-Straße,8.526724,49.503069,61902,"Edingen Bahnhof",8.6154,49.44123
044dd7f4,2016-10-04T18:35:00,344401,Festplatz,8.811391,49.430536,117601,Molkenkur,8.71494,49.40709
b265d95a,2016-10-04T18:37:00,239505,"Am Friedrichsplatz",8.479429,49.482852,262602,"Waldhof Nord",8.481021,49.531195
1a50f286,2016-10-04T18:43:00,217905,Ostringplatz,8.389953,49.532696,124802,"Ziegelh. Friedhof",8.760851,49.419649
d414dedf,2016-10-04T18:58:00,269305,Storchenstraße,8.54866,49.502291,82406,"FT Altenheim",8.36007,49.53571
8898cb38,2016-10-04T19:16:00,673905,"Budapester Straße",8.389165,49.537945,209305,Pfalzbau,8.445587,49.480044
f2b4dcb7,2016-10-04T19:28:00,170002,"Medizinische Klinik",8.666351,49.414627,260906,"Vogelstang West",8.531553,49.507434
51f6c2e0,2016-10-04T20:27:00,243905,Max-Joseph-Straße,8.476237,49.499681,123202,"Botanischer Garten",8.66893,49.41417
b090e2fa,2016-10-04T20:31:00,117602,Molkenkur,8.71507,49.40702,245302,Planetarium,8.49043,49.47667
3ef91ecf,2016-10-04T20:33:00,62406,"Neckarh. Brücke",8.59761,49.469137,247112,Universität,8.465762,49.481539
ceb1cc89,2016-10-04T20:43:00,252206,Neuostheim,8.522896,49.477473,218506,"Brüsseler Ring",8.38438,49.53752
2d0f3b2f,2016-10-04T22:03:00,115802,Gneisenaustr.,8.667713,49.408531,250105,Rheingoldhalle,8.469911,49.450027
aa1ed16d,2016-10-04T22:06:00,249706,Markuskirche,8.475127,49.464991,235706,Lanzvilla,8.487313,49.484265
dced9204,2016-10-04T22:34:00,219705,Rheingönheim,8.418998,49.443409,127501,"Rastatter Str.",8.679347,49.373672
6dabf0eb,2016-10-04T23:00:00,217601,"Oppau Süd",8.40795,49.51254,262607,"Waldhof Nord",8.481222,49.532701
54c368c0,2016-10-04T23:13:00,204862,Marienkrankenhaus,8.409559,49.459521,555301,Schönau,8.474265,49.546796
670e258a,2016-10-04T23:44:00,211105,Wittelsbachplatz,8.44369,49.475599,260902,"Vogelstang West",8.532063,49.506541
0273119c,2016-10-04T23:48:00,281001,Maxdorf,8.293566,49.480106,231507,Feudenheim,8.53847,49.48407
c1a6746c,2016-10-05T00:00:00,240402,Exerzierplatz,8.498364,49.503613,604106,"MA Rathaus/REM",8.463582,49.489551
e73daab9,2016-10-05T00:11:00,208901,Ludwigstraße,8.448643,49.482905,231706,"Feudenheim Kirche",8.53145,49.486566
8a5e9f51,2016-10-05T00:12:00,252206,Neuostheim,8.522896,49.477473,555705,Blücherstraße,8.527475,49.487334
443484c7,2016-10-05T00:32:00,286705,"Rheingönh. Gemeindeh",8.415584,49.444267,300102,Bildungszentrum,8.8059,49.38412
08320f58,2016-10-05T00:50:00,110801,"Am Bächenbuckel",8.76088,49.42319,119901,Volkshochschule,8.68044,49.40787
85ac71c7,2016-10-05T01:41:00,231507,Feudenheim,8.53847,49.48407,113511,Kapellenweg,8.68708,49.42473
f3633baa,2016-10-05T02:12:00,240201,Dalbergstraße,8.461299,49.493674,207305,Feierabendhaus,8.427923,49.492699
324774be,2016-10-05T02:18:00,640701,Heiligenbergstr.,8.69381,49.429706,429601,Unterdorf,8.772909,49.46673
bafbb8a2,2016-10-05T02:23:00,62105,"Edingen Rathaus",8.613527,49.447228,119403,Stadtwerke,8.6825,49.405082
13399998,2016-10-05T02:24:00,128302,Jägerhaus,8.747268,49.415349,215401,Hans-Warsch-Platz,8.376508,49.492531
ec7406f7,2016-10-05T03:21:00,132502,Rainweg,8.746769,49.430216,62907,"Neu-Ed. Gewerbegeb.",8.592709,49.454261
ca19c85e,2016-10-05T03:21:00,680505,Riedstraße,8.378043,49.455501,123801,"Pädagog. Hochschule",8.66996,49.41945
cc2ccc3c,2016-10-05T03:43:00,261202,Altrheinstraße,8.470917,49.525856,119411,Stadtwerke,8.681323,49.404912
5a500d5a,2016-10-05T03:47:00,247504,Wasserturm,8.47382,49.484705,250305,Holzweg,8.56122,49.45181
4f8f60c8,2016-10-05T03:57:00,209008,Marienkirche,8.4299,49.48507,128401,"S-Bf Orthopädie",8.77493,49.41033
62b5c572,2016-10-05T03:59:00,602905,O.-Bauder-Sportanl.,8.550876,49.466228,259301,"Pforzheimer Straße",8.549691,49.473538
a9ce3b9f,2016-10-05T04:05:00,300102,Bildungszentrum,8.8059,49.38412,51511,"Dossenheim Bahnhof",8.670168,49.448188
3734616e,2016-10-05T04:55:00,261305,"Am Herrschaftswald",8.507749,49.533825,680905,Berufsbildungszentr.,8.407648,49.475707
f9d23448,2016-10-05T04:56:00,204505,"Kallstadter Straße",8.401517,49.464235,118201,Posseltslust,8.73358,49.384631
5a115bf7,2016-10-05T05:09:00,284235,"Suebenheimer Allee",8.56461,49.45667,670905,"Neckarh. Friedhof",8.598075,49.460948
11725397,2016-10-05T05:28:00,640402,Tiefburg,8.68559,49.42769,615906,Holländerstraße,8.509025,49.428139
d23719f9,2016-10-05T05:46:00,252112,"Duale Hochschule",8.534548,49.475246,116701,"MPI Kernphysik",8.707654,49.388892
0e53c95d,2016-10-05T05:50:00,413612,Stahlbad,8.649003,49.544926,130002,Finanzamt,8.642472,49.42222
b0c44558,2016-10-05T05:56:00,254906,"Ruhrorter Straße",8.519132,49.421478,112201,Buchwaldweg,8.705261,49.3704
93d0c9a2,2016-10-05T06:15:00,132501,Rainweg,8.746738,49.430151,260906,"Vogelstang West",8.531553,49.507434
f9d9471f,2016-10-05T06:26:00,203701,Rottstückerweg,8.41608,49.502713,144902,"Schönauer Str.",8.76545,49.41774
5696ae6d,2016-10-05T06:38:00,249606,"Neckarau Marktplatz",8.491798,49.453203,243005,Landgüterhalle,8.450211,49.496218
94e217d3,2016-10-05T06:49:00,209010,Marienkirche,8.429863,49.485493,113001,Mombertplatz,8.70425,49.36908
25d2de29,2016-10-05T07:18:00,212906,Feuerwache,8.435598,49.464558,515205,Paul-Münch-Straße,8.327641,49.475565
d66426f0,2016-10-05T07:32:00,302401,Husarenweg,8.50244,49.46935,238805,Diffenebrücke,8.472043,49.516108
29ff53af,2016-10-05T07:35:00,62406,"Neckarh. Brücke",8.59761,49.469137,132602,Schweizertalstr.,8.753273,49.448227
8b49f556,2016-10-05T08:04:00,144802,"Lampenhain Rathaus",8.765592,49.498196,247601,Weberstraße,8.486068,49.476475
905e42e5,2016-10-05T08:42:00,128202,"Im Grund",8.770341,49.414136,211302,Amtsgericht,8.451567,49.471589
2089c0f6,2016-10-05T09:44:00,118602,"Rohrbacher Grenzweg",8.697096,49.396125,244607,"Neckarstadt West",8.459882,49.502838
6b212066,2016-10-05T10:04:00,204406,Hochfeldstraße,8.408136,49.466174,265001,Waldfriedhof,8.49453,49.53586
e5070f82,2016-10-05T10:05:00,673905,"Budapester Straße",8.389165,49.537945,130411,"Wiebl. Taubenfeld",8.642431,49.428779
592577e5,2016-10-05T10:10:00,245301,Planetarium,8.489474,49.476617,247202,Untermühlaustraße,8.471444,49.511314
fde899b9,2016-10-05T10:26:00,118011,Ochsenkopf,8.652087,49.409559,254805,"Rotterdamer S. Süd",8.515337,49.421312
529a6f83,2016-10-05T11:00:00,263205,Alemannenstraße,8.553145,49.494956,128401,"S-Bf Orthopädie",8.77493,49.41033
45fa7497,2016-10-05T11:16:00,189002,Zementwerk,8.68934,49.35776,202605,Kranichstraße,8.385158,49.536212
95cea760,2016-10-05T11:34:00,130901,Fürstendamm,8.749533,49.42863,243806,Marktplatz,8.467956,49.489699
1c2f87ec,2016-10-05T11:46:00,115802,Gneisenaustr.,8.667713,49.408531,253005,Hallenweg,8.535053,49.448886
cc67aeaa,2016-10-05T12:00:00,386512,"Viernheim Tivoli",8.565693,49.528292,115801,Gneisenaustr.,8.668805,49.409301
48b0a3be,2016-10-05T12:08:00,118101,Peterskirche,8.705417,49.408916,408512,"Lützels. Pilgerhaus",8.658551,49.533272
86793ade,2016-10-05T12:08:00,123002,DJK-Sportplatz,8.656838,49.42537,219705,Rheingönheim,8.418998,49.443409
e37d0558,2016-10-05T12:32:00,91001,Fußgönheim,8.287701,49.466497,614502,Kopfklinik,8.66688,49.4192
0fac6821,2016-10-05T12:33:00,126801,Haberstr.,8.682777,49.365091,244701,Abendakademie,8.469762,49.491532
962a24f6,2016-10-05T12:53:00,126102,Stotz,8.644253,49.402612,237806,"Wachenheimer Straße",8.508234,49.498164
39c540ac,2016-10-05T13:17:00,132601,Schweizertalstr.,8.753393,49.448432,617301,Kompostwerk,8.639923,49.435867
9015c805,2016-10-05T13:31:00,243105,Landwehrstraße,8.49026,49.50573,242906,Luisenp./Technoseum,8.496068,49.478662
fe7330c0,2016-10-05T13:49:00,132902,Stiftsmühle,8.743805,49.417342,251006,Fardelystraße,8.45769,49.50383
f11b0555,2016-10-05T13:49:00,215005,Buschwegbrücke,8.377869,49.495157,242205,Hochuferstraße,8.48751,49.50388
f17caed4,2016-10-05T13:53:00,603005,Kaiserstuhlring,8.551051,49.462311,248102,"Neckarau Bahnhof",8.494131,49.455496
6e2f4f68,2016-10-05T14:22:00,682701,E.-Hübner-Platz,8.687536,49.428153,254505,Pfingstberg,8.529712,49.446204
038bfa65,2016-10-05T14:28:00,238705,"Mercedes-Benz Tor 1",8.479751,49.516416,203706,Rottstückerweg,8.41598,49.502671
be4d07ca,2016-10-05T16:07:00,126102,Stotz,8.644253,49.402612,206006,BASF,8.43027,49.49586
198b206d,2016-10-05T16:12:00,236306,Habichtplatz,8.508281,49.513038,308401,Hatschekstr.,8.675125,49.362751
c6204d33,2016-10-05T16:29:00,218906,"Rheingönheim Bahnhof",8.409659,49.447107,232002,Neckarplatt,8.5122,49.488908
34c64ebe,2016-10-05T16:29:00,261106,Alsenweg,8.484358,49.531806,327805,"Luzenberg Ost",8.477851,49.516867
f66f98d4,2016-10-05T16:32:00,246405,Pfeifferswörth,8.50176,49.489775,241801,"MA Hauptfriedhof",8.49114,49.490969
ff3d2050,2016-10-05T16:50:00,127802,"Rohrbach Süd",8.688737,49.365841,212906,Feuerwache,8.435598,49.464558
f22db5f9,2016-10-05T17:11:00,250602,Voltastraße,8.490272,49.461073,256402,Krappmühlstraße,8.481307,49.475312
c71e98ae,2016-10-05T17:24:00,330606,Floßwörth,8.499606,49.460003,118201,Posseltslust,8.73358,49.384631
4f63612b,2016-10-05T17:30:00,238205,Amselstraße,8.458987,49.545907,214905,"Bexbacher Straße",8.397213,49.492064
172bdb70,2016-10-05T17:47:00,679401,Montpellierbrücke,8.678343,49.400546,211106,Wittelsbachplatz,8.443354,49.475108
01b11598,2016-10-05T17:56:00,236606,Maximilianstraße,8.485739,49.482564,260205,"Magdeburger Straße",8.546999,49.51379
2e54be04,2016-10-05T17:59:00,120802,Hagellachstr.,8.672441,49.378186,254206,Münchwälderstraße,8.535032,49.42172
f7c05199,2016-10-05T18:15:00,117602,Molkenkur,8.71507,49.40702,460605,Hauptstraße,8.420769,49.445311
37b944df,2016-10-05T18:49:00,116003,"HD Hauptbahnhof",8.675316,49.405097,118202,Posseltslust,8.733453,49.384651
82cf5b23,2016-10-05T19:09:00,236105,"Käfertal Friedhof",8.519057,49.515403,262607,"Waldhof Nord",8.481222,49.532701
92b21f66,2016-10-05T19:40:00,231501,Feudenheim,8.53763,49.48404,255105,Pigagestraße,8.528146,49.414017
31edf1ff,2016-10-05T19:42:00,208007,"LU Hauptbahnhof",8.435214,49.479496,78805,"FT Kugelfang",8.37669,49.53635
1127f919,2016-10-05T19:52:00,127607,"Rohrbach Markt",8.687865,49.380376,252306,Carl-Benz-Stadion,8.5023,49.477822
80363ac4,2016-10-05T20:21:00,283006,"Feuerwache Nord",8.5082,49.51753,214102,Schillerschule,8.427606,49.459735
74a8e845,2016-10-05T20:47:00,251006,Fardelystraße,8.45769,49.50383,122804,Bunsengymnasium,8.676752,49.417035
6f2a1c2c,2016-10-05T21:08:00,515206,Paul-Münch-Straße,8.3276,49.475837,251901,Lucas-Cranach-Straße,8.512511,49.478464
1ec76c3e,2016-10-05T21:22:00,113003,Mombertplatz,8.704279,49.369079,241705,"MA Hauptbahnhof",8.469337,49.480317
dbb34cef,2016-10-05T21:34:00,252205,Neuostheim,8.52254,49.477548,13401,"Bad Dürkheim Ost",8.185246,49.463453
ae97e6d8,2016-10-05T21:39:00,121904,"Kirchheim Rathaus",8.665284,49.377296,262702,Papyrus,8.459549,49.533616
c2e8df97,2016-10-05T21:40:00,233205,"Rotterdamer S. Nord",8.513912,49.427785,259206,"Zähringer Straße",8.559936,49.463635
b471af74,2016-10-05T21:44:00,679504,Messplatz,8.675807,49.391909,243906,Max-Joseph-Straße,8.476297,49.4997
658ee2bb,2016-10-05T21:47:00,302402,Husarenweg,8.502988,49.469078,260305,"Potsdamer Weg",8.531318,49.510239
86d9ab59,2016-10-05T22:13:00,202405,"Edigheim Kirche",8.392126,49.530136,231306,Andreas-Hofer-Straße,8.525368,49.490476
3d1970d6,2016-10-05T22:28:00,258906,Kapellenplatz,8.55518,49.46278,114403,Betriebshof,8.674682,49.407427
ba672cba,2016-10-05T23:01:00,247006,Ulmenweg,8.49323,49.50734,131602,Wielandtstr.,8.682043,49.417463
8bf6d289,2016-10-05T23:15:00,231701,"Feudenheim Kirche",8.530683,49.486538,203306,Lagewiesenstraße,8.411248,49.493664
05e55b75,2016-10-05T23:22:00,204305,Abteistraße,8.40713,49.46826,117402,Marstallstr.,8.70586,49.41335
d540fcd8,2016-10-05T23:23:00,243405,Gutenbergstraße,8.50406,49.49287,556311,"Heddesheim Bahnhof",8.594176,49.504812
cd88826c,2016-10-05T23:43:00,211706,"Maudach Gemeindehaus",8.38297,49.45507,254302,"Neuhofer Straße",8.525654,49.435512
4b7cbd63,2016-10-06T00:14:00,247501,Wasserturm,8.47321,49.48497,248701,Friedrichstraße,8.495132,49.453625
78360e57,2016-10-06T00:28:00,211705,"Maudach Gemeindehaus",8.38304,49.45524,299601,Herrenweg,8.80333,49.38114
dcba66a3,2016-10-06T00:54:00,225506,Albert-Haueisen-Ring,8.383223,49.503687,78806,"FT Kugelfang",8.37559,49.53635
5eefb14a,2016-10-06T00:55:00,386512,"Viernheim Tivoli",8.565693,49.528292,209006,Marienkirche,8.431387,49.485506
6c0dc853,2016-10-06T00:55:00,136402,"Peterstaler Str.",8.749092,49.434626,114001,"Alter Kohlhof",8.731112,49.388275
1e33476e,2016-10-06T00:58:00,302802,"Technoseum Süd",8.494106,49.475814,263805,Wallstadtschule,8.548777,49.497607
8465d061,2016-10-06T01:21:00,235405,"Heizkraftwerk Nord",8.454088,49.524065,122602,Technologiepark,8.676353,49.419414
baf7d681,2016-10-06T01:30:00,256701,Sandhofen,8.449414,49.542136,254495,"Rheinau Karlsplatz",8.522798,49.438967
f87564d0,2016-10-06T01:35:00,207905,"LU Klinikum",8.423174,49.490182,554505,"Mannheimer Straße",8.51283,49.508398
9431ef35,2016-10-06T01:46:00,112602,Louise-Ebert-Zentrum,8.703641,49.373285,239306,"Am Oberen Luisenpark",8.493558,49.480348
3767f5eb,2016-10-06T01:51:00,217907,Ostringplatz,8.389395,49.533777,219102,Brückweg,8.42593,49.44615
d8009236,2016-10-06T02:05:00,127001,"Im Breitspiel",8.686264,49.365172,243101,Landwehrstraße,8.4897,49.50547
1d007ce8,2016-10-06T02:17:00,214405,Damaschkestraße,8.404414,49.471814,215505,Hollergärten,8.383613,49.48958
d13c649e,2016-10-06T02:20:00,284905,Heinrich-Halfen-Str.,8.380771,49.507628,128402,"S-Bf Orthopädie",8.775053,49.410496
3701c610,2016-10-06T03:18:00,129201,"Wiebl. Evang. Kirche",8.647624,49.426011,133402,Sandwingert,8.644423,49.418732
ab942fb6,2016-10-06T03:20:00,216905,Dammbruchstraße,8.401635,49.523505,130203,"Wieblingen Mitte",8.645783,49.423532
10f9a70e,2016-10-06T03:23:00,254807,"Rotterdamer S. Süd",8.514587,49.421403,259401,"Seckenheim Rathaus",8.56267,49.46731
93f06927,2016-10-06T03:23:00,260906,"Vogelstang West",8.531553,49.507434,608005,"Am Salzkai",8.460415,49.496694
5037de78,2016-10-06T03:28:00,255302,Waldseestraße,8.5288,49.431534,209406,Fieskostraße,8.372974,49.489544
efe66602,2016-10-06T03:38:00,407711,Hohensachsen,8.655371,49.520176,236005,Thomashaus,8.506724,49.466404
ce861107,2016-10-06T03:52:00,127605,"Rohrbach Markt",8.687139,49.38056,202805,Wolfsgrube,8.388851,49.524991
a45e6bfa,2016-10-06T03:58:00,210202,"Friesenheim Mitte",8.418535,49.498188,123202,"Botanischer Garten",8.66893,49.41417
ab3a7751,2016-10-06T04:02:00,203702,Rottstückerweg,8.415464,49.502925,144802,"Lampenhain Rathaus",8.765592,49.498196
fd520d89,2016-10-06T04:04:00,62106,"Edingen Rathaus",8.613064,49.447564,263205,Alemannenstraße,8.553145,49.494956
64dd29a0,2016-10-06T04:23:00,714011,"Großsachsen Süd",8.656045,49.508738,641001,Bahofweg,8.701038,49.431522
f6dd761c,2016-10-06T04:44:00,260302,"Potsdamer Weg",8.533467,49.508268,127601,"Rohrbach Markt",8.68789,49.38035
4138aa39,2016-10-06T04:51:00,554808,"Alte Feuerwache",8.472299,49.495806,260906,"Vogelstang West",8.531553,49.507434
227e17ba,2016-10-06T04:52:00,215506,Hollergärten,8.384702,49.489966,256506,"Sandhofer Weg",8.447984,49.558647
784074f8,2016-10-06T05:23:00,113001,Mombertplatz,8.70425,49.36908,239505,"Am Friedrichsplatz",8.479429,49.482852
e0cbb47b,2016-10-06T05:43:00,261202,Altrheinstraße,8.470917,49.525856,212305,"Maudacher Bruch",8.398117,49.456808
a6166b8e,2016-10-06T05:54:00,302620,Gerd-Dehof-Platz,8.508166,49.465608,129001,Bonhoeffer-Straße,8.658899,49.411927
b67fd688,2016-10-06T06:48:00,134101,"Rombachweg Süd",8.73838,49.41344,207902,"LU Klinikum",8.423052,49.490221
944279cb,2016-10-06T07:12:00,250005,Windeckstraße,8.468614,49.474535,251901,Lucas-Cranach-Straße,8.512511,49.478464
6a16f50f,2016-10-06T08:03:00,345001,Sparkasse,8.80936,49.434879,114403,Betriebshof,8.674682,49.407427
f2c3c7b1,2016-10-06T08:05:00,115801,Gneisenaustr.,8.668805,49.409301,211506,"Maudach Ortsmitte",8.379173,49.454158
8ed3f1b8,2016-10-06T08:09:00,265006,Waldfriedhof,8.49486,49.53586,133201,Augustinum,8.703482,49.362895
abc2b508,2016-10-06T08:09:00,251105,Lochgärten,8.499688,49.470157,251305,Teufelsloch,8.501396,49.472873
676cbf41,2016-10-06T09:18:00,206802,Bgm.-Kutterer-Straße,8.440958,49.477567,134401,Jettaweg,8.74306,49.41323
e1cf2602,2016-10-06T09:21:00,215701,"Mannheimer Tor",8.378972,49.49087,128402,"S-Bf Orthopädie",8.775053,49.410496
fc5eb623,2016-10-06T09:29:00,112401,Haselnussweg,8.702652,49.37454,429502,"Schriesheimer Hof",8.754297,49.470321
7956afc6,2016-10-06T09:53:00,231805,"Feudenheim Kreuz",8.537116,49.485933,203605,Riedsaumpark,8.404664,49.495271
4b544434,2016-10-06T09:56:00,206806,Bgm.-Kutterer-Straße,8.442269,49.478257,133011,"Gneisenaustraße Süd",8.667384,49.406586
e9829a59,2016-10-06T10:09:00,250701,"Neckarau West",8.481916,49.455663,243811,Marktplatz,8.467565,49.489214
1fb8b8cf,2016-10-06T10:31:00,280905,Landzungenstraße,8.454255,49.49532,215308,Froschlache,8.392777,49.490846
1e977ac8,2016-10-06T10:42:00,231805,"Feudenheim Kreuz",8.537116,49.485933,257706,"Königsberger Allee",8.469344,49.546534
d07bb193,2016-10-06T10:59:00,250702,"Neckarau West",8.481908,49.455093,257306,"Graudenzer Linie",8.481061,49.539378
4b32e9f4,2016-10-06T11:06:00,263007,Waldstraße,8.48856,49.52906,612001,"Im Hauskorb",8.796531,49.469438
0b5b2bb0,2016-10-06T11:14:00,123101,Jugendherberge,8.661112,49.417409,616005,"Birkenauer Straße",8.530779,49.515469
1e33d4c6,2016-10-06T11:33:00,125403,Kranichweg,8.641298,49.401418,234445,Max-Planck-Straße,8.45688,49.51921
37e88194,2016-10-06T11:33:00,680706,Wasserwerk,8.364096,49.473646,241806,"MA Hauptfriedhof",8.4908,49.490838
d37c935d,2016-10-06T11:40:00,128706,"S-Bf Schlierb./Zgh.",8.762564,49.415372,215006,Buschwegbrücke,8.377819,49.495093
42742cf0,2016-10-06T12:29:00,114407,Betriebshof,8.674827,49.407622,214606,Adolf-Kolping-Straße,8.362233,49.494804
6d8ea61a,2016-10-06T12:31:00,268005,Gotenstraße,8.555257,49.499727,82406,"FT Altenheim",8.36007,49.53571
9691b142,2016-10-06T12:40:00,237605,"Käfertal Süd",8.506152,49.507329,210206,"Friesenheim Mitte",8.419308,49.498291
e6f3b767,2016-10-06T13:00:00,122302,"Alte Brücke Nord",8.708806,49.415247,241303,Bonifatiuskirche,8.48849,49.49892
694f545c,2016-10-06T13:17:00,214405,Damaschkestraße,8.404414,49.471814,209301,Pfalzbau,8.44599,49.480257
9fe6ed06,2016-10-06T13:46:00,248606,"Neckarau Friedhof",8.50152,49.455054,125802,Schützenstr.,8.648076,49.399334
f5710a9c,2016-10-06T14:04:00,245802,Rheinstraße,8.458235,49.490993,253005,Hallenweg,8.535053,49.448886
93f57751,2016-10-06T14:18:00,118011,Ochsenkopf,8.652087,49.409559,255206,"Rheinau Süd",8.540178,49.41484
7c65cf95,2016-10-06T14:21:00,115102,Czernybrücke,8.671285,49.406868,232406,Talstraße,8.524839,49.495178
a956d561,2016-10-06T14:35:00,130601,Waldorfschule,8.633779,49.438327,256706,Sandhofen,8.4498,49.541665
e9f372eb,2016-10-06T14:57:00,125501,"Kurpfalzring Süd",8.640974,49.40272,383511,"Viernh. Eissporthalle",8.595436,49.539144
2106a430,2016-10-06T15:14:00,614102,Fabrikstr.,8.682172,49.380007,203701,Rottstückerweg,8.41608,49.502713
f82c3b09,2016-10-06T15:35:00,128502,Rombachweg,8.74258,49.41577,429601,Unterdorf,8.772909,49.46673
cea8fa29,2016-10-06T15:42:00,94001,Gönnheim,8.232891,49.458214,602905,O.-Bauder-Sportanl.,8.550876,49.466228
2fb5c466,2016-10-06T16:12:00,61606,"Edingen Ost",8.617546,49.444668,231305,Andreas-Hofer-Straße,8.525426,49.490511
38c81273,2016-10-06T16:15:00,120302,"S-Bf Kirchh./Rohrb.",8.675207,49.378778,344301,Steinachbrücke,8.801416,49.466984
2c186946,2016-10-06T16:25:00,246612,Tattersall,8.473452,49.481597,114101,Bergfriedhof,8.68985,49.395654
6ca8fcd0,2016-10-06T16:30:00,344501,Lindenbach,8.806615,49.420508,133702,"Chirurgische Klinik",8.67334,49.41376
17a28c74,2016-10-06T16:42:00,890305,"Gorxheimer Straße",8.543208,49.517569,246501,Strohmarkt,8.469659,49.486397
bf59e323,2016-10-06T16:44:00,603605,"Pfingstberg Sportan.",8.524846,49.449159,69602,"Kirchheimer Str.",8.62656,49.39926
7cb9572c,2016-10-06T17:08:00,264505,"Wallstadt West",8.543823,49.500944,231506,Feudenheim,8.53821,49.48411
8e112224,2016-10-06T17:23:00,247505,Wasserturm,8.474874,49.484997,554301,Theresienkrankenhaus,8.480702,49.489768
31224f4a,2016-10-06T18:03:00,110902,Moselbrunnenweg,8.760494,49.422134,208302,Heinrich-Pesch-Haus,8.413098,49.4836
f13468c6,2016-10-06T18:16:00,134902,Schulbergweg,8.7636,49.41854,216906,Dammbruchstraße,8.401369,49.523625
389e7569,2016-10-06T18:18:00,299701,"Kümmelbacher Hof",8.776765,49.392932,247103,Universität,8.463348,49.482188
d187cde7,2016-10-06T18:22:00,113603,Hans-Thoma-Platz,8.68305,49.427369,206006,BASF,8.43027,49.49586
72cfb8b7,2016-10-06T18:40:00,210401,Schützenstraße,8.448925,49.477443,253201,"Mülheimer Straße",8.531419,49.428343
480ae2e9,2016-10-06T18:54:00,209606,"LU Rathaus",8.441094,49.484142,120102,Alfred-Jost-Str.,8.659146,49.378834
a95b2ec9,2016-10-06T18:58:00,133702,"Chirurgische Klinik",8.67334,49.41376,109401,HITS,8.73677,49.41506
422d6066,2016-10-06T19:02:00,202105,Anglerstraße,8.382927,49.53232,385120,"Viernheim Bahnhof",8.58208,49.53504
a22cf479,2016-10-06T20:26:00,202605,Kranichstraße,8.385158,49.536212,205005,Pommernstraße,8.405855,49.454255
12c96083,2016-10-06T20:58:00,238608,Luzenberg,8.475291,49.516266,263905,"Wallstadt Sportanl.",8.542214,49.500795
1b5b2d85,2016-10-06T21:13:00,206008,BASF,8.432609,49.494946,243211,"Lange Rötterstraße",8.486387,49.495742
26feaa3f,2016-10-06T21:18:00,217106,"Oppau Gemeindehaus",8.403949,49.521716,116301,Kaiserstr.,8.691633,49.402565
eaf2ecc4,2016-10-06T21:18:00,214606,Adolf-Kolping-Straße,8.362233,49.494804,109101,"Bärenbach Süd",8.77545,49.41345
c390756a,2016-10-06T22:06:00,261506,"Waldhof Bahnhof",8.481776,49.524775,237605,"Käfertal Süd",8.506152,49.507329
8748dd0a,2016-10-06T23:06:00,210406,Schützenstraße,8.447742,49.47768,246405,Pfeifferswörth,8.50176,49.489775
f6951ee8,2016-10-06T23:08:00,232102,Neckarstraße,8.532123,49.484285,257905,Sachsenstraße,8.545646,49.507322
d331924e,2016-10-06T23:19:00,602905,O.-Bauder-Sportanl.,8.550876,49.466228,236201,Speckweg,8.49903,49.5206
18a6d835,2016-10-06T23:40:00,236202,Speckweg,8.49938,49.52106,259312,"Pforzheimer Straße",8.55056,49.47329
9c12a932,2016-10-06T23:43:00,211302,Amtsgericht,8.451567,49.471589,569805,"Dortmunder Straße",8.515432,49.418748
3c987ca5,2016-10-06T23:43:00,127606,"Rohrbach Markt",8.687336,49.380516,216205,"Speyerer Straße",8.367197,49.482176
92adf782,2016-10-07T00:05:00,248102,"Neckarau Bahnhof",8.494131,49.455496,687705,"Strandbad Blies",8.41541,49.475622
204d18b6,2016-10-07T00:19:00,240506,Jungbuschschule,8.45914,49.495509,130102,Maltesergasse,8.645866,49.428874
0eaaea13,2016-10-07T00:34:00,109401,HITS,8.73677,49.41506,259406,"Seckenheim Rathaus",8.56367,49.4668
d5937fd3,2016-10-07T00:49:00,204808,Marienkrankenhaus,8.409149,49.459444,206009,BASF,8.430622,49.494586
f5bf8178,2016-10-07T00:49:00,256506,"Sandhofer Weg",8.447984,49.558647,130222,"Wieblingen Mitte",8.646117,49.423362
073d4e62,2016-10-07T00:56:00,250305,Holzweg,8.56122,49.45181,205305,Ammoniakstraße,8.410485,49.505276
78001570,2016-10-07T00:57:00,603105,"Innerer Heckweg",8.563189,49.459265,603606,"Pfingstberg Sportan.",8.524526,49.449436
27da6945,2016-10-07T01:02:00,413611,Stahlbad,8.649248,49.545129,682701,E.-Hübner-Platz,8.687536,49.428153
798ede13,2016-10-07T01:02:00,240506,Jungbuschschule,8.45914,49.495509,264005,"Wallstadt Wasserturm",8.544324,49.499258
b7e1da42,2016-10-07T01:31:00,213906,"Mundenheim Nord",8.432754,49.465653,252412,Schwindstraße,8.518961,49.478402
b46ae045,2016-10-07T01:44:00,344301,Steinachbrücke,8.801416,49.466984,211706,"Maudach Gemeindehaus",8.38297,49.45507
277c5fd5,2016-10-07T02:07:00,128501,Rombachweg,8.74211,49.41576,554408,Universitätsklinikum,8.48454,49.49357
5bdddb25,2016-10-07T02:22:00,145401,"S-Bf Pfaffeng./Wbl.",8.641262,49.412122,249106,"Im Morchhof",8.504585,49.456003
435e7cae,2016-10-07T02:23:00,130102,Maltesergasse,8.645866,49.428874,133702,"Chirurgische Klinik",8.67334,49.41376
c815196d,2016-10-07T02:42:00,344101,Krone,8.806398,49.460831,237406,Sonnenschein,8.50514,49.521834
d66922f1,2016-10-07T02:43:00,262906,Waldpforte,8.496597,49.537902,241711,"MA Hauptbahnhof",8.469311,49.480367
98bce196,2016-10-07T02:55:00,126202,"Baden-Badener Straße",8.682425,49.376722,208902,Ludwigstraße,8.44805,49.48337
312a6909,2016-10-07T02:55:00,262206,"Glücksburger Weg",8.486268,49.536407,202205,Bruderweg,8.391627,49.525956
d4a3dee0,2016-10-07T02:59:00,131601,Wielandtstr.,8.681559,49.417351,127701,Saarstr.,8.686426,49.385744
46befd76,2016-10-07T03:12:00,269406,"Wallstadt Mitte",8.546396,49.496333,114606,Bismarckplatz,8.6933,49.40967
4056fc68,2016-10-07T03:18:00,231202,"Am Aubuckel",8.51933,49.488511,215702,"Mannheimer Tor",8.378778,49.491115
5d8cce26,2016-10-07T03:18:00,259412,"Seckenheim Rathaus",8.56345,49.46683,128801,Carl-Bosch-Museum,8.72918,49.41571
6466f35e,2016-10-07T04:01:00,132002,"Mittlerer Rainweg",8.746591,49.426134,555905,Hofrat-Wild-Straße,8.521729,49.450749
67e38a0a,2016-10-07T04:13:00,232605,Alteichwaldsiedlung,8.57205,49.43226,246905,TÜV,8.50437,49.498
b5dc8632,2016-10-07T04:14:00,242306,Hombuschstraße,8.460743,49.516252,247505,Wasserturm,8.474874,49.484997
f5bdb292,2016-10-07T04:25:00,110201,"Villa Schmeil",8.73227,49.4159,186305,Lagerhausstraße,8.44942,49.46755
93fea480,2016-10-07T04:44:00,223105,Pasadenaallee,8.436063,49.481441,259406,"Seckenheim Rathaus",8.56367,49.4668
741b199d,2016-10-07T05:16:00,254401,"Rheinau Karlsplatz",8.522985,49.439035,217706,Karl-Dillinger-Str.,8.380463,49.501448
cc27a837,2016-10-07T05:28:00,247201,Untermühlaustraße,8.47125,49.51068,348412,Zentgrafenstraße,8.657469,49.477361
44db4c06,2016-10-07T06:01:00,246502,Strohmarkt,8.470126,49.48618,259506,Schlittweg,8.543518,49.455858
b2646cc7,2016-10-07T06:31:00,219720,Rheingönheim,8.418309,49.443452,246205,Schloss,8.462137,49.484659
06e1b9e5,2016-10-07T06:35:00,169312,"HD Fachhochschule",8.649425,49.415157,286506,Schwanthalerplatz,8.455568,49.469281
eb023d2e,2016-10-07T06:43:00,61705,Thomas-Mann-Straße,8.600452,49.466344,127601,"Rohrbach Markt",8.68789,49.38035
c686cb07,2016-10-07T06:49:00,117402,Marstallstr.,8.70586,49.41335,62406,"Neckarh. Brücke",8.59761,49.469137
ae45f9a9,2016-10-07T07:08:00,203002,Kreuzstraße,8.41355,49.497187,210405,Schützenstraße,8.447828,49.477658
2aee990a,2016-10-07T07:26:00,205006,Pommernstraße,8.405563,49.454766,128403,"S-Bf Orthopädie",8.774355,49.409889
9b42cbc9,2016-10-07T07:28:00,254506,Pfingstberg,8.529174,49.445991,299501,Hanfmarkt,8.7967,49.39473
c8ae88f1,2016-10-07T07:36:00,120101,Alfred-Jost-Str.,8.65904,49.37865,408511,"Lützels. Pilgerhaus",8.658312,49.532683
d356f314,2016-10-07T07:39:00,239905,Bonadiesstraße,8.449964,49.504798,232401,Talstraße,8.524617,49.495323
2aa8ac3e,2016-10-07T07:54:00,252705,Faltkistenwerk,8.51158,49.421344,221806,Bliesstraße,8.422357,49.479226
1ae8a474,2016-10-07T07:57:00,217907,Ostringplatz,8.389395,49.533777,131301,"Ziegelhausen Kirche",8.761224,49.417848
57ff816d,2016-10-07T08:01:00,129401,"Grenzhöfer Weg",8.644071,49.426139,261601,Roche,8.469148,49.528296
fe07ff45,2016-10-07T08:01:00,65801,"Ellerstadt West",8.254881,49.462578,264512,"Wallstadt West",8.544402,49.500258
f86796bd,2016-10-07T08:11:00,414613,"Weinheim Alt. OEG-Bf",8.66504,49.54923,121301,Mathilde-Vogt-Haus,8.660402,49.381141
f279b2b2,2016-10-07T08:16:00,257705,"Königsberger Allee",8.46896,49.546547,132201,Neckarhelle,8.748146,49.417464
8a8bca68,2016-10-07T08:22:00,235902,Boveristraße,8.502731,49.505491,232501,Ziethenstraße,8.518969,49.490301
4bb501d6,2016-10-07T08:56:00,205108,Schlesierstraße,8.40519,49.45203,569806,"Dortmunder Straße",8.515353,49.418782
115b86e0,2016-10-07T09:03:00,640501,Bachlenz,8.687966,49.430226,210506,Shellhaus,8.446893,49.470378
b2bbe357,2016-10-07T09:12:00,251505,Harrlach,8.506398,49.478144,127702,Saarstr.,8.686615,49.386063
db7e4684,2016-10-07T09:15:00,132402,"Neuer Weg",8.752773,49.41735,554206,Kunsthalle,8.472809,49.482326
4043a214,2016-10-07T09:21:00,113611,Hans-Thoma-Platz,8.682927,49.427461,245306,Planetarium,8.489762,49.476534
06fbe0fa,2016-10-07T09:21:00,280606,Brauerei,8.48985,49.49599,243312,Lessingstraße,8.485415,49.489241
76b4d859,2016-10-07T09:21:00,132702,"Stift Neuburg",8.735142,49.419329,128502,Rombachweg,8.74258,49.41577
c60bdfb9,2016-10-07T09:22:00,587502,"Vorderheubach Mitte",8.776957,49.489896,124902,"Im Dornbusch",8.649173,49.395764
3337d4f0,2016-10-07T09:23:00,203502,Rheinfeldstraße,8.424792,49.499477,261605,Roche,8.469127,49.528416
04930202,2016-10-07T09:35:00,62006,"Pfälzer Hof",8.609392,49.450624,91002,Fußgönheim,8.287335,49.466213
11c7f7c8,2016-10-07T09:58:00,600605,Popakademie,8.45745,49.49633,128402,"S-Bf Orthopädie",8.775053,49.410496
20e557d7,2016-10-07T10:03:00,263512,"Wallstadt Bahnhof",8.549386,49.498484,239702,Bgm.-Fuchs-Straße,8.463843,49.501265
ad800bd9,2016-10-07T10:14:00,251512,Harrlach,8.506792,49.478247,232406,Talstraße,8.524839,49.495178
05cea6ef,2016-10-07T10:41:00,134101,"Rombachweg Süd",8.73838,49.41344,246805,Ida-Dehmel-Ring,8.531081,49.504648
a6a5c8aa,2016-10-07T10:46:00,203105,"Friesenheim Ost",8.420821,49.501083,258105,M.-Winterhalter-Ring,8.481247,49.551121
9c48da68,2016-10-07T10:49:00,257705,"Königsberger Allee",8.46896,49.546547,263605,"Osterburker Straße",8.547069,49.493904
443c1055,2016-10-07T10:54:00,129502,Hermann-Treiber-Str.,8.651862,49.419827,218706,"Pfingstweide Zentrum",8.388932,49.540466
fb71483e,2016-10-07T11:06:00,259450,"Seckenheim Rathaus",8.563188,49.467029,237605,"Käfertal Süd",8.506152,49.507329
5e475346,2016-10-07T11:50:00,242906,Luisenp./Technoseum,8.496068,49.478662,62206,Schillerstraße,8.619783,49.442925
818cd920,2016-10-07T11:58:00,210005,Rohrlachstraße,8.42989,49.48254,119462,Stadtwerke,8.68284,49.405512
bb1c7eb9,2016-10-07T13:10:00,205305,Ammoniakstraße,8.410485,49.505276,118402,Rathaus-Bergbahn,8.711509,49.411172
9ce3315c,2016-10-07T13:23:00,113601,Hans-Thoma-Platz,8.682977,49.427424,62906,"Neu-Ed. Gewerbegeb.",8.592638,49.454363
e92ff343,2016-10-07T13:35:00,237906,"Zäher Wille",8.494686,49.521564,264311,"Wallstadt Ost",8.553354,49.497506
bbca65bc,2016-10-07T13:36:00,206006,BASF,8.43027,49.49586,133111,Berufsschule,8.660445,49.408579
785ff753,2016-10-07T13:57:00,114303,Bethanienkrankenhaus,8.690217,49.392121,555402,"Schönau Siedlung",8.47346,49.53988
4513ac0b,2016-10-07T14:04:00,429501,"Schriesheimer Hof",8.754447,49.470209,69702,"Eppelheim Rathaus",8.629096,49.401611
99221ea3,2016-10-07T14:21:00,119462,Stadtwerke,8.68284,49.405512,128705,"S-Bf Schlierb./Zgh.",8.76131,49.41553
9760a7bb,2016-10-07T14:30:00,114104,Bergfriedhof,8.689928,49.395443,383512,"Viernh. Eissporthalle",8.59624,49.53928
d34d0dfb,2016-10-07T14:45:00,249401,Lettestraße,8.486855,49.465384,219206,Friedensstraße,8.423574,49.44959
3482fddd,2016-10-07T14:49:00,241002,Carl-Benz-Straße,8.471443,49.499829,114906,Rudolf-Diesel-Str.,8.67719,49.39612
2260ffa0,2016-10-07T14:51:00,255701,"Bürstadter Straße",8.453306,49.535219,238805,Diffenebrücke,8.472043,49.516108
e898f53b,2016-10-07T14:54:00,204106,Schwalbenweg,8.418501,49.493371,554501,"Mannheimer Straße",8.512372,49.507927
033078ed,2016-10-07T15:22:00,250012,Windeckstraße,8.468792,49.473892,215306,Froschlache,8.393076,49.491534
516b0623,2016-10-07T15:22:00,114903,Rudolf-Diesel-Str.,8.67783,49.39601,207305,Feierabendhaus,8.427923,49.492699
34319315,2016-10-07T16:07:00,385311,"Viernheim Ost",8.589402,49.537459,130901,Fürstendamm,8.749533,49.42863
6c288c7f,2016-10-07T16:23:00,231206,"Am Aubuckel",8.519289,49.488504,120301,"S-Bf Kirchh./Rohrb.",8.675299,49.378775
c9b4c27e,2016-10-07T16:39:00,113802,Alois-Link-Platz,8.691363,49.400206,235906,Boveristraße,8.502084,49.504572
793e0ddf,2016-10-07T17:38:00,123312,Kußmaulstr.,8.69055,49.419003,344201,Pflug,8.804379,49.465428
6e7e6473,2016-10-07T17:51:00,250305,Holzweg,8.56122,49.45181,144802,"Lampenhain Rathaus",8.765592,49.498196
d7442bf5,2016-10-07T17:52:00,244805,Neckarvorlandstraße,8.444304,49.504465,206106,"Edigheim Friedhof",8.394311,49.530158
28201aab,2016-10-07T18:35:00,214201,Wollstraße,8.396974,49.485834,125802,Schützenstr.,8.648076,49.399334
d5ceb29f,2016-10-07T18:36:00,204101,Schwalbenweg,8.41858,49.49332,608006,"Am Salzkai",8.46081,49.49641
003288d9,2016-10-07T18:38:00,474306,"Oppau Friedhof",8.40867,49.521872,69501,Jakobsgasse,8.632746,49.401021
b6fcbc87,2016-10-07T19:24:00,109101,"Bärenbach Süd",8.77545,49.41345,216305,Uferstraße,8.374793,49.504479
047182ff,2016-10-07T19:25:00,251806,Hans-Thoma-Straße,8.524129,49.474812,114404,Betriebshof,8.674832,49.407513
0f780eb0,2016-10-07T19:35:00,211506,"Maudach Ortsmitte",8.379173,49.454158,554301,Theresienkrankenhaus,8.480702,49.489768
3ea8ba29,2016-10-07T19:41:00,256106,Karl-Schweizer-Park,8.447976,49.548853,614102,Fabrikstr.,8.682172,49.380007
ec09fc6c,2016-10-07T19:45:00,263402,Kiesäcker,8.536587,49.498917,241602,Handelshafen,8.453653,49.491848
3a77cef9,2016-10-07T20:14:00,254206,Münchwälderstraße,8.535032,49.42172,233005,Neudorfstraße,8.57594,49.440246
2612deb3,2016-10-07T20:18:00,131801,"Langer Kirschbaum",8.751355,49.459024,258401,Schönauschule,8.47411,49.54364
51a4b398,2016-10-07T20:21:00,414614,"Weinheim Alt. OEG-Bf",8.664895,49.548651,260912,"Vogelstang West",8.53187,49.50618
c87de56f,2016-10-07T21:09:00,253201,"Mülheimer Straße",8.531419,49.428343,302806,"Technoseum Süd",8.493521,49.476018
bded8235,2016-10-07T21:25:00,120802,Hagellachstr.,8.672441,49.378186,257305,"Graudenzer Linie",8.481112,49.539356
91acc28b,2016-10-07T21:41:00,131802,"Langer Kirschbaum",8.751243,49.459075,203605,Riedsaumpark,8.404664,49.495271
2cf7bb9d,2016-10-07T21:47:00,113002,Mombertplatz,8.704051,49.369554,217205,Horst-Schork-Straße,8.406527,49.515336
ff95a2d9,2016-10-07T21:50:00,207605,"Große Blies",8.422464,49.474111,252306,Carl-Benz-Stadion,8.5023,49.477822
c19d14aa,2016-10-07T22:06:00,260902,"Vogelstang West",8.532063,49.506541,134501,Wolfsbrunnensteige,8.74509,49.4132
314af973,2016-10-07T22:22:00,217906,Ostringplatz,8.389915,49.532613,302511,Ulanenweg,8.506081,49.467629
5a4001be,2016-10-07T22:50:00,130411,"Wiebl. Taubenfeld",8.642431,49.428779,217805,"Oppau West",8.394622,49.522309
17701215,2016-10-07T23:01:00,250405,Strandbad,8.452871,49.447683,117401,Marstallstr.,8.7057,49.41329
1bd2b327,2016-10-07T23:13:00,236606,Maximilianstraße,8.485739,49.482564,262105,Freyaplatz,8.4931,49.52973
a059722b,2016-10-07T23:22:00,211506,"Maudach Ortsmitte",8.379173,49.454158,208301,Heinrich-Pesch-Haus,8.413807,49.483625
0f97c74f,2016-10-07T23:35:00,680905,Berufsbildungszentr.,8.407648,49.475707,682601,Rolloßweg,8.691002,49.430257
516c6126,2016-10-07T23:53:00,203002,Kreuzstraße,8.41355,49.497187,239905,Bonadiesstraße,8.449964,49.504798
25257edd,2016-10-08T00:06:00,121501,"Obere Seegasse",8.669186,49.377294,249505,Mallaustraße,8.509996,49.4542
4428d34b,2016-10-08T00:50:00,130221,"Wieblingen Mitte",8.645849,49.423843,235106,Weidenwörth,8.463005,49.517851
885c5b00,2016-10-08T01:28:00,752205,Drehbrücke,8.452825,49.470355,203502,Rheinfeldstraße,8.424792,49.499477
fc2581c7,2016-10-08T01:31:00,233806,Dürstelschlag,8.452373,49.510797,214202,Wollstraße,8.39706,49.48583
b1b07867,2016-10-08T01:36:00,664901,"Westlich B9",8.354283,49.483492,249401,Lettestraße,8.486855,49.465384
eceb838b,2016-10-08T02:06:00,127701,Saarstr.,8.686426,49.385744,169311,"HD Fachhochschule",8.649356,49.415694
0eef30b8,2016-10-08T02:06:00,241307,Bonifatiuskirche,8.48842,49.49899,82405,"FT Altenheim",8.36003,49.53595
909e28fd,2016-10-08T02:14:00,554205,Kunsthalle,8.472262,49.482348,257306,"Graudenzer Linie",8.481061,49.539378
5ace0514,2016-10-08T02:17:00,411812,Händelstraße,8.65638,49.54892,116101,Hirschgasse,8.716972,49.416292
747b4e40,2016-10-08T02:29:00,215406,Hans-Warsch-Platz,8.376452,49.492624,257006,Blumenau,8.478724,49.561511
5dea6fde,2016-10-08T02:50:00,241205,Gewerkschaftshaus,8.475774,49.490228,231520,Feudenheim,8.53739,49.48409
108e6ac9,2016-10-08T02:53:00,62406,"Neckarh. Brücke",8.59761,49.469137,238602,Luzenberg,8.476495,49.516553
bbee816e,2016-10-08T02:58:00,554001,Franz-Sigel-Straße,8.476956,49.462779,118502,Rheinstr.,8.690349,49.389996
eb2622f0,2016-10-08T03:09:00,234205,Kammerschleuse,8.448264,49.508272,118601,"Rohrbacher Grenzweg",8.696955,49.396195
0e0af210,2016-10-08T03:10:00,282905,Kirchwaldstraße,8.49112,49.53494,615806,"Prager Straße",8.389895,49.541805
9996a349,2016-10-08T03:53:00,246502,Strohmarkt,8.470126,49.48618,273406,Robert-Lauth-Straße,8.383026,49.509093
eeba55f4,2016-10-08T04:03:00,264505,"Wallstadt West",8.543823,49.500944,209305,Pfalzbau,8.445587,49.480044
b73ed374,2016-10-08T04:05:00,262602,"Waldhof Nord",8.481021,49.531195,252209,Neuostheim,8.522486,49.477552
11866a66,2016-10-08T04:24:00,127701,Saarstr.,8.686426,49.385744,124201,Studentenwohnheim,8.663111,49.418767
bf05d064,2016-10-08T04:40:00,408511,"Lützels. Pilgerhaus",8.658312,49.532683,243505,Lortzingstraße,8.467873,49.497198
28d0f1a6,2016-10-08T04:50:00,253120,"Essener Straße",8.507935,49.421279,211805,"Kärntner Straße",8.404059,49.456941
c28ca75e,2016-10-08T05:20:00,119901,Volkshochschule,8.68044,49.40787,411812,Händelstraße,8.65638,49.54892
4472ef5d,2016-10-08T05:23:00,121904,"Kirchheim Rathaus",8.665284,49.377296,62706,"Neckarh. West",8.589802,49.469372
dbabf093,2016-10-08T05:47:00,202902,Ebertpark/Fichtestr.,8.420885,49.491761,113212,Biethsstr.,8.68251,49.43068
4c4df0f7,2016-10-08T05:48:00,612002,"Im Hauskorb",8.796715,49.469441,127607,"Rohrbach Markt",8.687865,49.380376
4196de58,2016-10-08T07:26:00,114001,"Alter Kohlhof",8.731112,49.388275,121101,"Königsberger Str.",8.666023,49.384281
2b79c718,2016-10-08T07:32:00,203606,Riedsaumpark,8.404692,49.495308,414614,"Weinheim Alt. OEG-Bf",8.664895,49.548651
d81f6290,2016-10-08T07:42:00,215306,Froschlache,8.393076,49.491534,144702,"Hilsenhain Ort",8.771466,49.512033
bccab42a,2016-10-08T08:39:00,217705,Karl-Dillinger-Str.,8.38056,49.501439,236502,"Hessische Straße",8.49641,49.51567
620c80f1,2016-10-08T08:53:00,670905,"Neckarh. Friedhof",8.598075,49.460948,236501,"Hessische Straße",8.49619,49.51518
25c6f89b,2016-10-08T09:26:00,238206,Amselstraße,8.459138,49.545895,127601,"Rohrbach Markt",8.68789,49.38035
25f17598,2016-10-08T09:37:00,129601,"Käfertaler Str.",8.644743,49.430176,217907,Ostringplatz,8.389395,49.533777
1bfca38d,2016-10-08T09:45:00,202606,Kranichstraße,8.385151,49.536061,244402,Nationaltheater,8.478515,49.487646
f0aba4c3,2016-10-08T09:46:00,815406,"Ruchheim Schloss",8.3295,49.471512,260908,"Vogelstang West",8.53328,49.50582
34e8600d,2016-10-08T09:49:00,206106,"Edigheim Friedhof",8.394311,49.530158,302605,Gerd-Dehof-Platz,8.508456,49.465666
8c902e7c,2016-10-08T10:56:00,121301,Mathilde-Vogt-Haus,8.660402,49.381141,248102,"Neckarau Bahnhof",8.494131,49.455496
5d755615,2016-10-08T10:58:00,665005,Oderstraße,8.35163,49.487748,235811,"Bensheimer Straße",8.526364,49.513305
6d388bb4,2016-10-08T11:01:00,714012,"Großsachsen Süd",8.65596,49.509324,257006,Blumenau,8.478724,49.561511
d587e920,2016-10-08T11:11:00,554802,"Alte Feuerwache",8.47368,49.49614,118501,Rheinstr.,8.690347,49.389877
2e6eabc9,2016-10-08T12:02:00,554411,Universitätsklinikum,8.483875,49.493571,603606,"Pfingstberg Sportan.",8.524526,49.449436
4c6a9f5a,2016-10-08T12:32:00,264311,"Wallstadt Ost",8.553354,49.497506,232105,Neckarstraße,8.53348,49.484294
0af057f1,2016-10-08T13:01:00,263805,Wallstadtschule,8.548777,49.497607,127203,Kolbenzeil,8.681573,49.37381
8cd5ee92,2016-10-08T13:04:00,258005,"Tilsiter Straße",8.467873,49.552423,202205,Bruderweg,8.391627,49.525956
a8e796ce,2016-10-08T13:29:00,257306,"Graudenzer Linie",8.481061,49.539378,241205,Gewerkschaftshaus,8.475774,49.490228
c1ecef1d,2016-10-08T13:31:00,217909,Ostringplatz,8.389399,49.532756,207402,Gartenstraße,8.440812,49.489131
288dec85,2016-10-08T13:33:00,115403,Eisenbahnersportpl.,8.658525,49.406432,220301,Ruchheim,8.32755,49.478501
ce904d36,2016-10-08T13:40:00,231501,Feudenheim,8.53763,49.48404,640402,Tiefburg,8.68559,49.42769
52da8319,2016-10-08T14:19:00,129201,"Wiebl. Evang. Kirche",8.647624,49.426011,144902,"Schönauer Str.",8.76545,49.41774
71d85702,2016-10-08T14:35:00,211806,"Kärntner Straße",8.403975,49.457198,249108,"Im Morchhof",8.505393,49.455902
0e927fcb,2016-10-08T14:54:00,240005,Bunsenstraße,8.456483,49.501921,261905,"Wetzlarer Winkel",8.489612,49.522523
03e4c69f,2016-10-08T15:06:00,117801,Neckarspitze,8.664035,49.410134,231520,Feudenheim,8.53739,49.48409
de5b9443,2016-10-08T15:16:00,112801,Forum,8.70555,49.364086,603105,"Innerer Heckweg",8.563189,49.459265
d509227b,2016-10-08T15:27:00,212206,"Maudach Ortseingang",8.38927,49.4551,211905,Krappstraße,8.372542,49.455296
a7744b94,2016-10-08T15:33:00,554405,Universitätsklinikum,8.48366,49.49365,248205,"Ladenburger Straße",8.520828,49.512083
194617dd,2016-10-08T15:37:00,411812,Händelstraße,8.65638,49.54892,127804,"Rohrbach Süd",8.688865,49.36548
7a9ce76b,2016-10-08T15:38:00,714011,"Großsachsen Süd",8.656045,49.508738,212106,"Maudacher Straße",8.415736,49.461126
f4950645,2016-10-08T15:43:00,231406,Feldstraße,8.543815,49.488679,209506,Raschig,8.439649,49.465974
ace73655,2016-10-08T17:22:00,260005,"Chemnitzer Straße",8.551625,49.511263,614001,"Quartieram Turm",8.682125,49.382006
e79b84ca,2016-10-08T17:36:00,235305,"Am Kuhbuckel",8.511052,49.525863,203305,Lagewiesenstraße,8.410351,49.493615
5ed8c2f8,2016-10-08T17:56:00,243101,Landwehrstraße,8.4897,49.50547,217602,"Oppau Süd",8.40783,49.51245
2bb54aab,2016-10-08T18:23:00,204005,Schopenhauerstraße,8.426725,49.496497,252306,Carl-Benz-Stadion,8.5023,49.477822
a907dbd4,2016-10-08T18:39:00,240105,Kunstverein,8.487492,49.479227,240106,Kunstverein,8.487515,49.479588
83e91559,2016-10-08T18:40:00,256305,Krähenflügel,8.456694,49.55131,125202,Henkel-Teroson-Str.,8.652559,49.405709
ebdc5a7e,2016-10-08T19:27:00,246506,Strohmarkt,8.470116,49.486261,207305,Feierabendhaus,8.427923,49.492699
adb487a8,2016-10-08T19:36:00,554802,"Alte Feuerwache",8.47368,49.49614,130221,"Wieblingen Mitte",8.645849,49.423843
b97e3d46,2016-10-08T19:36:00,110702,Hirtenbrunnenweg,8.756378,49.422599,215401,Hans-Warsch-Platz,8.376508,49.492531
7c5bc741,2016-10-08T19:43:00,210405,Schützenstraße,8.447828,49.477658,212406,Achtmorgenstraße,8.41932,49.465819
885bd511,2016-10-08T20:25:00,118012,Ochsenkopf,8.653085,49.409427,232006,Neckarplatt,8.511902,49.488863
830428ca,2016-10-08T21:14:00,127601,"Rohrbach Markt",8.68789,49.38035,216502,Wilhelm-Tell-Straße,8.370006,49.490381
bf6c6780,2016-10-08T21:29:00,126701,"Freiburger Str.",8.688023,49.373385,815405,"Ruchheim Schloss",8.33074,49.471548
dd001873,2016-10-08T21:32:00,210401,Schützenstraße,8.448925,49.477443,385120,"Viernheim Bahnhof",8.58208,49.53504
48815c74,2016-10-08T21:46:00,240611,Fernmeldeturm,8.493401,49.486875,263005,Waldstraße,8.48872,49.52846
16c9dfee,2016-10-08T21:46:00,231602,Hölderlinstraße,8.52962,49.496388,109101,"Bärenbach Süd",8.77545,49.41345
2889b4ca,2016-10-08T22:11:00,245211,Pestalozzischule,8.482306,49.478551,65801,"Ellerstadt West",8.254881,49.462578
910b0435,2016-10-08T22:41:00,218505,"Brüsseler Ring",8.384525,49.538538,120502,G.-Mendel-Realschule,8.666596,49.386896
38d2a983,2016-10-08T23:16:00,128202,"Im Grund",8.770341,49.414136,569805,"Dortmunder Straße",8.515432,49.418748
1645db19,2016-10-08T23:18:00,235108,Weidenwörth,8.463305,49.518517,255302,Waldseestraße,8.5288,49.431534
52ad8912,2016-10-08T23:21:00,286506,Schwanthalerplatz,8.455568,49.469281,554406,Universitätsklinikum,8.484224,49.493404
1a8522ce,2016-10-08T23:29:00,122501,Blumenthalstr.,8.68906,49.421556,62905,"Neu-Ed. Gewerbegeb.",8.591353,49.453663
1a6e0d1d,2016-10-08T23:38:00,414613,"Weinheim Alt. OEG-Bf",8.66504,49.54923,385312,"Viernheim Ost",8.589774,49.537517
da81ec34,2016-10-08T23:44:00,245902,Rosengarten,8.47564,49.48572,129501,Hermann-Treiber-Str.,8.651891,49.419588
2a91cfa9,2016-10-08T23:47:00,204205,Sternstraße,8.414716,49.495684,234806,Rheinrottstraße,8.454613,49.511875
48f78729,2016-10-09T00:07:00,256506,"Sandhofer Weg",8.447984,49.558647,263106,Zellstoff-Fabrik,8.464894,49.531472
7e65f41c,2016-10-09T00:13:00,203101,"Friesenheim Ost",8.421656,49.501428,131202,Hausackerweg,8.72755,49.41829
c7fcebd1,2016-10-09T00:27:00,209301,Pfalzbau,8.44599,49.480257,260912,"Vogelstang West",8.53187,49.50618
5df6c734,2016-10-09T00:31:00,204105,Schwalbenweg,8.41799,49.493927,208007,"LU Hauptbahnhof",8.435214,49.479496
574c74c5,2016-10-09T00:45:00,232705,Elsa-Brändström-Str.,8.56537,49.45021,213907,"Mundenheim Nord",8.432313,49.46623
d58368fa,2016-10-09T01:06:00,122605,Technologiepark,8.67554,49.41955,554802,"Alte Feuerwache",8.47368,49.49614
4345a0cf,2016-10-09T01:34:00,250705,"Neckarau West",8.481988,49.455165,223005,"Am Herrschaftsweiher",8.329472,49.479541
2ed8c672,2016-10-09T01:51:00,112301,Fernheizwerk,8.706823,49.376132,204006,Schopenhauerstraße,8.426761,49.496447
56114e7b,2016-10-09T02:07:00,237606,"Käfertal Süd",8.505925,49.5072,664606,"LU Völklinger Straße",8.40443,49.48856
274facdb,2016-10-09T02:34:00,257606,Kerschensteinersch.,8.479456,49.546969,131002,"Grüner Baum",8.751988,49.437555
201f5d16,2016-10-09T03:00:00,252205,Neuostheim,8.52254,49.477548,261505,"Waldhof Bahnhof",8.481972,49.525152
0c71eb1f,2016-10-09T03:11:00,61706,Thomas-Mann-Straße,8.600415,49.466345,211302,Amtsgericht,8.451567,49.471589
9badeeda,2016-10-09T04:26:00,214106,Schillerschule,8.42772,49.459721,245802,Rheinstraße,8.458235,49.490993
59b8c54a,2016-10-09T04:27:00,249606,"Neckarau Marktplatz",8.491798,49.453203,62706,"Neckarh. West",8.589802,49.469372
61729779,2016-10-09T04:55:00,214905,"Bexbacher Straße",8.397213,49.492064,131601,Wielandtstr.,8.681559,49.417351
9a36de0b,2016-10-09T05:07:00,120801,Hagellachstr.,8.672647,49.378274,133201,Augustinum,8.703482,49.362895
d73bc9a7,2016-10-09T05:40:00,283306,"Saarburger Ring",8.57549,49.44573,254101,EMBL,8.709849,49.383782
74672001,2016-10-09T06:34:00,125203,Henkel-Teroson-Str.,8.652259,49.405695,239702,Bgm.-Fuchs-Straße,8.463843,49.501265
e980f334,2016-10-09T06:46:00,232805,Langlachweg,8.568925,49.447228,210802,Südwest-Stadion,8.439917,49.47243
e68072c8,2016-10-09T06:48:00,253202,"Mülheimer Straße",8.531716,49.427847,212606,Friedenspark,8.437397,49.484419
07f6f211,2016-10-09T06:56:00,209806,"Bayreuther Straße",8.419753,49.477777,236711,"Platz der Freundsch.",8.538109,49.518339
b3cf7230,2016-10-09T07:07:00,261706,Eschenhof,8.504585,49.535461,712505,Großparthweiher,8.383506,49.498502
e0da1670,2016-10-09T08:07:00,252206,Neuostheim,8.522896,49.477473,131901,Löwen,8.754152,49.444626
08a9c272,2016-10-09T08:14:00,212106,"Maudacher Straße",8.415736,49.461126,215405,Hans-Warsch-Platz,8.376127,49.492821
ad49b987,2016-10-09T08:19:00,614301,Herrenmühle,8.716749,49.413672,207306,Feierabendhaus,8.427946,49.492834
2e846aab,2016-10-09T08:20:00,62106,"Edingen Rathaus",8.613064,49.447564,259606,Schwabenstraße,8.56757,49.46263
24eabd27,2016-10-09T08:23:00,158511,"Leutershausen Bf.",8.656634,49.497647,286535,Schwanthalerplatz,8.45547,49.46958
99c356e7,2016-10-09T08:30:00,383511,"Viernh. Eissporthalle",8.595436,49.539144,255905,Füllenweg,8.448643,49.562158
452f0c2e,2016-10-09T08:32:00,250005,Windeckstraße,8.468614,49.474535,187901,"Leimen Friedhof",8.69311,49.34345
163619b6,2016-10-09T08:44:00,130203,"Wieblingen Mitte",8.645783,49.423532,348211,"Schriesheim Süd",8.663671,49.463254
a74fe7f7,2016-10-09T08:54:00,205108,Schlesierstraße,8.40519,49.45203,250305,Holzweg,8.56122,49.45181
194c12c3,2016-10-09T08:55:00,13402,"Bad Dürkheim Ost",8.18425,49.46342,218505,"Brüsseler Ring",8.384525,49.538538
f6437720,2016-10-09T08:59:00,259412,"Seckenheim Rathaus",8.56345,49.46683,112101,Boxbergring,8.704338,49.378254
3c114b82,2016-10-09T09:00:00,243506,Lortzingstraße,8.467726,49.497328,386512,"Viernheim Tivoli",8.565693,49.528292
d20c8681,2016-10-09T09:09:00,208102,"LU Hauptfriedhof",8.423289,49.484079,221909,"BASF Süd",8.435923,49.492479
b6dc0cfb,2016-10-09T09:51:00,127403,"Ortenauer Str.",8.687328,49.377738,251812,Hans-Thoma-Straße,8.524093,49.47476
e04295f3,2016-10-09T09:59:00,243905,Max-Joseph-Straße,8.476237,49.499681,265906,"Fürstenwalder Weg",8.53557,49.510302
d465057d,2016-10-09T10:13:00,236712,"Platz der Freundsch.",8.539196,49.518522,244206,Moselstraße,8.483479,49.498841
eb5402d6,2016-10-09T10:17:00,115502,Feuerbachstr.,8.686432,49.393502,261005,"Vogelstang Zentrum",8.539217,49.510825
f500834d,2016-10-09T10:34:00,204862,Marienkrankenhaus,8.409559,49.459521,128702,"S-Bf Schlierb./Zgh.",8.761281,49.415387
fa0a4fd4,2016-10-09T10:55:00,208007,"LU Hauptbahnhof",8.435214,49.479496,237305,Käfertalschule,8.51488,49.51456
8b5c46fb,2016-10-09T11:18:00,125202,Henkel-Teroson-Str.,8.652559,49.405709,298501,"Ngmd. Altes Rathaus",8.799676,49.393098
23c90ef0,2016-10-09T11:19:00,238607,Luzenberg,8.47577,49.51649,243706,Zielstraße,8.500204,49.505486
aad32fff,2016-10-09T12:03:00,124501,Hans-Bunte-Str.,8.640462,49.407057,127604,"Rohrbach Markt",8.6883,49.380532
213fa209,2016-10-09T12:21:00,112002,"Am Götzenberg",8.701371,49.372022,115801,Gneisenaustr.,8.668805,49.409301
5033bed0,2016-10-09T12:24:00,554501,"Mannheimer Straße",8.512372,49.507927,62105,"Edingen Rathaus",8.613527,49.447228
f6649ca8,2016-10-09T12:38:00,235305,"Am Kuhbuckel",8.511052,49.525863,117403,Marstallstr.,8.70546,49.41297
abddf604,2016-10-09T12:41:00,261206,Altrheinstraße,8.471197,49.525592,205301,Ammoniakstraße,8.41067,49.504922
48b8caba,2016-10-09T13:00:00,120702,"Kirchheim Friedhof",8.659324,49.375877,125202,Henkel-Teroson-Str.,8.652559,49.405709
a04c4bb8,2016-10-09T13:03:00,215006,Buschwegbrücke,8.377819,49.495093,130203,"Wieblingen Mitte",8.645783,49.423532
0c017e20,2016-10-09T13:08:00,209302,Pfalzbau,8.44544,49.480024,408511,"Lützels. Pilgerhaus",8.658312,49.532683
e258e2ba,2016-10-09T13:24:00,238412,Meeräckerplatz,8.471914,49.468988,125403,Kranichweg,8.641298,49.401418
c4a3da6c,2016-10-09T13:31:00,239005,Stolzeneckstraße,8.52268,49.446128,429601,Unterdorf,8.772909,49.46673
3eacd026,2016-10-09T13:38:00,188202,Johannes-Reidel-Str.,8.6892,49.35381,198102,"Pleikartsförster Str",8.662716,49.383144
32720d43,2016-10-09T13:46:00,207906,"LU Klinikum",8.422695,49.490463,91002,Fußgönheim,8.287335,49.466213
057c1fef,2016-10-09T14:13:00,259802,Carl-Benz-Bad,8.50583,49.52675,385312,"Viernheim Ost",8.589774,49.537517
568b789f,2016-10-09T14:24:00,126706,"Freiburger Str.",8.687936,49.373448,237705,Gebweilerstraße,8.57151,49.43788
12f78f6e,2016-10-09T14:28:00,263205,Alemannenstraße,8.553145,49.494956,123202,"Botanischer Garten",8.66893,49.41417
13b87b38,2016-10-09T15:12:00,111602,Klingenweg,8.764106,49.422606,218605,Heinz-Schifferd.-Str,8.384702,49.506619
870920a1,2016-10-09T15:23:00,250806,Hafenpark,8.46717,49.51059,220105,"Am Hüttengraben",8.35398,49.481371
b11a9c54,2016-10-09T15:31:00,554802,"Alte Feuerwache",8.47368,49.49614,266705,"Aufden Ried",8.53785,49.50258
5d58edbe,2016-10-09T16:29:00,247305,"Verl. Jungbuschstr.",8.452177,49.494661,263007,Waldstraße,8.48856,49.52906
89698495,2016-10-09T16:30:00,215406,Hans-Warsch-Platz,8.376452,49.492624,730306,Kolpingstraße,8.482791,49.486636
df74ef7d,2016-10-09T16:48:00,239005,Stolzeneckstraße,8.52268,49.446128,251105,Lochgärten,8.499688,49.470157
13294fb4,2016-10-09T17:04:00,257306,"Graudenzer Linie",8.481061,49.539378,125502,"Kurpfalzring Süd",8.64084,49.402535
25080c65,2016-10-09T17:08:00,119202,"St. Vinc.-Krankenhaus",8.697311,49.412085,257006,Blumenau,8.478724,49.561511
4600e4c4,2016-10-09T17:11:00,61920,"Edingen Bahnhof",8.615359,49.442237,299502,Hanfmarkt,8.79659,49.3948
52cee028,2016-10-09T17:13:00,132502,Rainweg,8.746769,49.430216,248805,Freiheitsplatz,8.479514,49.45958
a37ca575,2016-10-09T17:49:00,114403,Betriebshof,8.674682,49.407427,247206,Untermühlaustraße,8.471579,49.511283
81602af8,2016-10-09T18:16:00,236805,Kometenweg,8.5119,49.5234,251805,Hans-Thoma-Straße,8.524343,49.475221
dd9931f0,2016-10-09T18:29:00,236905,"Neues Leben",8.502937,49.51926,217005,Frankenstraße,8.403498,49.515126
137923a9,2016-10-09T18:51:00,243906,Max-Joseph-Straße,8.476297,49.4997,265906,"Fürstenwalder Weg",8.53557,49.510302
92b63cd4,2016-10-09T18:53:00,555402,"Schönau Siedlung",8.47346,49.53988,261805,Föhrenweg,8.499652,49.537215
5baabeb3,2016-10-09T19:36:00,281402,"Maxdorf Süd",8.289268,49.476561,255105,Pigagestraße,8.528146,49.414017
c245e5ac,2016-10-09T19:49:00,243606,Ludolf-Krehl-Straße,8.49218,49.49722,212506,"Am Schwanen",8.42939,49.46318
87c8216f,2016-10-09T20:26:00,242705,Kurpfalzbrücke,8.470685,49.492876,249701,Markuskirche,8.475596,49.464621
6b3013c6,2016-10-09T20:56:00,681005,Heuweg,8.409488,49.473395,259506,Schlittweg,8.543518,49.455858
0b7545a4,2016-10-09T21:20:00,130412,"Wiebl. Taubenfeld",8.642799,49.428327,264505,"Wallstadt West",8.543823,49.500944
b13572cb,2016-10-09T21:24:00,664505,"Ebertpark Süd",8.414749,49.487158,127820,"Rohrbach Süd",8.68939,49.36581
590b0b65,2016-10-09T21:48:00,682701,E.-Hübner-Platz,8.687536,49.428153,260805,"real Vogelstang",8.55558,49.52058
ba71d5c5,2016-10-09T22:05:00,114904,Rudolf-Diesel-Str.,8.67908,49.3968,245705,Joseph-Bauer-Haus,8.514121,49.505647
4b18729d,2016-10-09T23:09:00,132501,Rainweg,8.746738,49.430151,127002,"Im Breitspiel",8.686886,49.365309
a37cde9a,2016-10-09T23:26:00,62206,Schillerstraße,8.619783,49.442925,126706,"Freiburger Str.",8.687936,49.373448
0f1b66e2,2016-10-09T23:55:00,554408,Universitätsklinikum,8.48454,49.49357,245302,Planetarium,8.49043,49.47667
a92b712a,2016-10-10T00:19:00,219705,Rheingönheim,8.418998,49.443409,283005,"Feuerwache Nord",8.50861,49.51745
f7725b94,2016-10-10T00:31:00,249606,"Neckarau Marktplatz",8.491798,49.453203,245103,Paradeplatz,8.466639,49.487599
090d8bae,2016-10-10T00:47:00,202305,Deichstraße,8.386383,49.529381,261201,Altrheinstraße,8.471178,49.525371
8f886d55,2016-10-10T00:55:00,242901,Luisenp./Technoseum,8.495746,49.478978,114601,Bismarckplatz,8.693199,49.409861
582f21fe,2016-10-10T01:04:00,113603,Hans-Thoma-Platz,8.68305,49.427369,695702,"Untere Rödt",8.647244,49.402146
7bd3a25b,2016-10-10T01:10:00,815405,"Ruchheim Schloss",8.33074,49.471548,119302,Stadtbücherei,8.68601,49.4061
a2fe2165,2016-10-10T01:12:00,131201,Hausackerweg,8.727759,49.418278,210202,"Friesenheim Mitte",8.418535,49.498188
f24c63d3,2016-10-10T01:37:00,680806,"Karlsbader Straße",8.404334,49.476954,211201,Heinrich-Ries-Halle,8.42693,49.487532
5c1f13a4,2016-10-10T02:19:00,231606,Hölderlinstraße,8.530452,49.496422,554201,Kunsthalle,8.473566,49.4833
3b4eb0ca,2016-10-10T02:44:00,211102,Wittelsbachplatz,8.444142,49.475804,232502,Ziethenstraße,8.519309,49.49045
de927f64,2016-10-10T02:54:00,233706,Bastion,8.465994,49.517761,129101,"Wieblingen Nord",8.64194,49.432733
3e228100,2016-10-10T02:58:00,687805,"Inden Neugärten",8.36599,49.47887,263006,Waldstraße,8.48882,49.52832
4c0a0f54,2016-10-10T03:13:00,261006,"Vogelstang Zentrum",8.539479,49.510761,261602,Roche,8.468683,49.528692
2182b739,2016-10-10T03:22:00,119412,Stadtwerke,8.682359,49.405027,208301,Heinrich-Pesch-Haus,8.413807,49.483625
0a6957ba,2016-10-10T03:24:00,240611,Fernmeldeturm,8.493401,49.486875,115201,"Czernybrücke Süd",8.668392,49.405191
0e87b54b,2016-10-10T03:42:00,65801,"Ellerstadt West",8.254881,49.462578,214606,Adolf-Kolping-Straße,8.362233,49.494804
cf23d2b8,2016-10-10T04:09:00,243102,Landwehrstraße,8.49032,49.50576,251406,"Am Schäferstock",8.503256,49.47504
dbe2a565,2016-10-10T04:20:00,119201,"St. Vinc.-Krankenhaus",8.697252,49.412018,300102,Bildungszentrum,8.8059,49.38412
0f5b7dee,2016-10-10T04:21:00,131802,"Langer Kirschbaum",8.751243,49.459075,118012,Ochsenkopf,8.653085,49.409427
218cf68b,2016-10-10T04:51:00,255606,"Blumenauer Weg",8.448225,49.555514,260902,"Vogelstang West",8.532063,49.506541
6f5ee99e,2016-10-10T04:53:00,251602,Kopernikusstraße,8.477351,49.478617,328405,Nachtweide,8.405202,49.541306
d63d5e27,2016-10-10T04:56:00,260901,"Vogelstang West",8.532033,49.50603,256306,Krähenflügel,8.457486,49.551417
0126dd5f,2016-10-10T04:58:00,133011,"Gneisenaustraße Süd",8.667384,49.406586,187902,"Leimen Friedhof",8.69351,49.34345
09a788dd,2016-10-10T05:09:00,241211,Gewerkschaftshaus,8.475352,49.490494,554408,Universitätsklinikum,8.48454,49.49357
84b1b87f,2016-10-10T05:41:00,302405,Husarenweg,8.500058,49.468867,82901,Lutherstr.,8.69131,49.4172
66ef884c,2016-10-10T05:58:00,119201,"St. Vinc.-Krankenhaus",8.697252,49.412018,241905,Hauptgüterbahnhof,8.447051,49.50076
802e5b3a,2016-10-10T06:06:00,114408,Betriebshof,8.674817,49.407483,188602,Georgi-Marktplatz,8.68889,49.34955
169c9d7b,2016-10-10T06:10:00,82406,"FT Altenheim",8.36007,49.53571,815406,"Ruchheim Schloss",8.3295,49.471512
0c87e9a7,2016-10-10T06:29:00,212305,"Maudacher Bruch",8.398117,49.456808,219102,Brückweg,8.42593,49.44615
df6c1b2e,2016-10-10T06:33:00,244005,Möhlstraße,8.487064,49.474654,238412,Meeräckerplatz,8.471914,49.468988
8f79958a,2016-10-10T06:37:00,254506,Pfingstberg,8.529174,49.445991,231520,Feudenheim,8.53739,49.48409
04b0a0f9,2016-10-10T06:40:00,123801,"Pädagog. Hochschule",8.66996,49.41945,212606,Friedenspark,8.437397,49.484419
250e8afc,2016-10-10T06:56:00,257605,Kerschensteinersch.,8.479818,49.54704,238601,Luzenberg,8.47573,49.516102
0c10fde9,2016-10-10T07:41:00,127601,"Rohrbach Markt",8.68789,49.38035,132401,"Neuer Weg",8.752939,49.417451
90aa63b3,2016-10-10T07:45:00,245901,Rosengarten,8.475284,49.485285,204206,Sternstraße,8.415567,49.496022
0b265272,2016-10-10T07:57:00,241806,"MA Hauptfriedhof",8.4908,49.490838,407712,Hohensachsen,8.655305,49.520754
1e8740e5,2016-10-10T08:23:00,213005,"Mundenheim Friedhof",8.416871,49.468181,124802,"Ziegelh. Friedhof",8.760851,49.419649
59166007,2016-10-10T08:34:00,252212,Neuostheim,8.52333,49.477471,158512,"Leutershausen Bf.",8.656618,49.498207
c9a49cb9,2016-10-10T08:53:00,238620,Luzenberg,8.475155,49.516455,123202,"Botanischer Garten",8.66893,49.41417
1cf178c9,2016-10-10T09:01:00,129602,"Käfertaler Str.",8.644773,49.430254,133601,"Kleingemünder S. Ost",8.7656,49.41645
416c73b0,2016-10-10T09:05:00,250501,Diesterwegschule,8.469868,49.471566,121803,Ilse-Krall-Str.,8.673273,49.386564
a244e039,2016-10-10T09:18:00,254205,Münchwälderstraße,8.534476,49.421679,260912,"Vogelstang West",8.53187,49.50618
3c053e65,2016-10-10T09:23:00,682701,E.-Hübner-Platz,8.687536,49.428153,262905,Waldpforte,8.49674,49.537981
dd3bda76,2016-10-10T10:09:00,713501,Speyererhof,8.709393,49.395499,118903,Römerstr.,8.68535,49.40792
761f358a,2016-10-10T10:16:00,712505,Großparthweiher,8.383506,49.498502,215702,"Mannheimer Tor",8.378778,49.491115
3fa6531b,2016-10-10T10:21:00,679501,Messplatz,8.675377,49.390931,126011,Brückenstr.,8.692092,49.41524
9b0fae5f,2016-10-10T10:34:00,254206,Münchwälderstraße,8.535032,49.42172,263007,Waldstraße,8.48856,49.52906
770ff0f7,2016-10-10T11:08:00,113802,Alois-Link-Platz,8.691363,49.400206,127701,Saarstr.,8.686426,49.385744
273c1f24,2016-10-10T11:25:00,608006,"Am Salzkai",8.46081,49.49641,204208,Sternstraße,8.415621,49.495358
586929ec,2016-10-10T11:25:00,600506,Akademiestraße,8.45682,49.492495,133302,Heiligenbergschule,8.679706,49.42364
960d16ea,2016-10-10T11:25:00,205107,Schlesierstraße,8.405147,49.451956,220606,Baustraße,8.336219,49.475487
c16e02fa,2016-10-10T11:33:00,213405,Hoheneckenstraße,8.426555,49.456669,128501,Rombachweg,8.74211,49.41576
d72a3184,2016-10-10T11:44:00,119101,Kühruhweg,8.708552,49.393783,248701,Friedrichstraße,8.495132,49.453625
bb32ea11,2016-10-10T12:41:00,263101,Zellstoff-Fabrik,8.465351,49.531218,251912,Lucas-Cranach-Straße,8.512939,49.478482
98eabfdb,2016-10-10T12:56:00,251106,Lochgärten,8.499536,49.469954,119302,Stadtbücherei,8.68601,49.4061
728a26bf,2016-10-10T13:38:00,258402,Schönauschule,8.474136,49.544235,122903,Jahnstr.,8.675475,49.412857
d8feda6f,2016-10-10T13:43:00,233205,"Rotterdamer S. Nord",8.513912,49.427785,250501,Diesterwegschule,8.469868,49.471566
80487c9a,2016-10-10T13:59:00,120302,"S-Bf Kirchh./Rohrb.",8.675207,49.378778,241106,"Gesamtsch. Herzogenr.",8.477211,49.508389
77710d59,2016-10-10T14:10:00,118602,"Rohrbacher Grenzweg",8.697096,49.396125,202605,Kranichstraße,8.385158,49.536212
3e96d8ff,2016-10-10T14:30:00,136402,"Peterstaler Str.",8.749092,49.434626,249202,Isarweg,8.503181,49.449107
a4409fad,2016-10-10T14:53:00,429601,Unterdorf,8.772909,49.46673,261306,"Am Herrschaftswald",8.507532,49.534066
e6facdaf,2016-10-10T15:02:00,344201,Pflug,8.804379,49.465428,251305,Teufelsloch,8.501396,49.472873
f959d202,2016-10-10T15:43:00,62912,"Neu-Ed. Gewerbegeb.",8.591156,49.454317,330606,Floßwörth,8.499606,49.460003
b6f7cfe8,2016-10-10T15:52:00,236206,Speckweg,8.498,49.52066,123801,"Pädagog. Hochschule",8.66996,49.41945
ff007e0a,2016-10-10T15:53:00,209007,Marienkirche,8.43043,49.485144,198102,"Pleikartsförster Str",8.662716,49.383144
22d1daec,2016-10-10T15:55:00,144202,"Abzw. Bärsbach",8.772288,49.497947,123311,Kußmaulstr.,8.690765,49.418537
0a71e3a4,2016-10-10T15:57:00,261201,Altrheinstraße,8.471178,49.525371,247005,Ulmenweg,8.49274,49.50709
578fcd59,2016-10-10T16:41:00,158512,"Leutershausen Bf.",8.656618,49.498207,126302,Eichendorffplatz,8.690462,49.383637
c6d28dbf,2016-10-10T17:16:00,570002,Oggersheim,8.364314,49.488298,62705,"Neckarh. West",8.589528,49.469413
acfa7c72,2016-10-10T17:43:00,286535,Schwanthalerplatz,8.45547,49.46958,210001,Rohrlachstraße,8.429817,49.483105
62015410,2016-10-10T18:27:00,251601,Kopernikusstraße,8.477642,49.478401,216106,Rosenwörthstraße,8.37482,49.49687
70452ede,2016-10-10T19:09:00,257206,Brockenweg,8.479963,49.557011,413612,Stahlbad,8.649003,49.544926
c2bfbed5,2016-10-10T19:16:00,407712,Hohensachsen,8.655305,49.520754,124502,Hans-Bunte-Str.,8.640388,49.406744
0b0b7f6d,2016-10-10T19:16:00,243905,Max-Joseph-Straße,8.476237,49.499681,258712,"Deutscher Hof",8.55702,49.47087
3a094d5c,2016-10-10T20:06:00,410511,Blumenstraße,8.637617,49.544581,234446,Max-Planck-Straße,8.45699,49.51908
cadf1325,2016-10-10T20:40:00,130203,"Wieblingen Mitte",8.645783,49.423532,615806,"Prager Straße",8.389895,49.541805
b15f9089,2016-10-10T20:46:00,664505,"Ebertpark Süd",8.414749,49.487158,257020,Blumenau,8.479401,49.561598
bf18667f,2016-10-10T21:29:00,233805,Dürstelschlag,8.452363,49.510751,127001,"Im Breitspiel",8.686264,49.365172
a45c63f7,2016-10-10T21:45:00,122301,"Alte Brücke Nord",8.709199,49.415282,247112,Universität,8.465762,49.481539
af7ef89b,2016-10-10T21:50:00,69601,"Kirchheimer Str.",8.62736,49.39979,78805,"FT Kugelfang",8.37669,49.53635
f8fa737a,2016-10-10T21:53:00,69601,"Kirchheimer Str.",8.62736,49.39979,385311,"Viernheim Ost",8.589402,49.537459
bdfd7266,2016-10-10T22:14:00,674005,"Londoner Ring",8.389412,49.543816,257405,"Haderslebener Straße",8.481108,49.541953
8bcd767d,2016-10-10T22:25:00,250012,Windeckstraße,8.468792,49.473892,240005,Bunsenstraße,8.456483,49.501921
c130fdbc,2016-10-10T22:40:00,124201,Studentenwohnheim,8.663111,49.418767,133302,Heiligenbergschule,8.679706,49.42364
