date_time,from_id,from_name,from_lon,from_lat,to_id,to_name,to_lon,to_lat
2016-10-01T00:33:00,604106,"MA Rathaus/REM",8.463582,49.489551,211206,Heinrich-Ries-Halle,8.426591,49.487647
2016-10-01T00:41:00,687805,"Inden Neugärten",8.36599,49.47887,133112,Berufsschule,8.661295,49.40842
2016-10-01T00:46:00,259505,Schlittweg,8.543745,49.455891,127607,"Rohrbach Markt",8.687865,49.380376
2016-10-01T00:55:00,209005,Marienkirche,8.431398,49.485371,231106,Adolf-Damaschke-Ring,8.521015,49.493407
2016-10-01T02:10:00,243705,Zielstraße,8.50002,49.50577,202205,Bruderweg,8.391627,49.525956
2016-10-01T02:28:00,235708,Lanzvilla,8.486977,49.485062,263511,"Wallstadt Bahnhof",8.548714,49.498805
2016-10-01T02:32:00,233506,"Fried. Vogesenstraße",8.578992,49.442503,118903,Römerstr.,8.68535,49.40792
2016-10-01T02:42:00,348212,"Schriesheim Süd",8.6635,49.463879,240612,Fernmeldeturm,8.493381,49.486838
2016-10-01T03:13:00,250012,Windeckstraße,8.468792,49.473892,133401,Sandwingert,8.64437,49.41897
2016-10-01T03:43:00,245301,Planetarium,8.489474,49.476617,260905,"Vogelstang West",8.531727,49.507025
2016-10-01T04:13:00,558805,Karl-Feuerstein-Str.,8.487207,49.522247,263906,"Wallstadt Sportanl.",8.542474,49.500639
2016-10-01T05:09:00,211302,Amtsgericht,8.451567,49.471589,246805,Ida-Dehmel-Ring,8.531081,49.504648
2016-10-01T05:53:00,263402,Kiesäcker,8.536587,49.498917,125301,"Im Wellengewann",8.64077,49.409376
2016-10-01T06:08:00,664902,"Westlich B9",8.35364,49.48335,132401,"Neuer Weg",8.752939,49.417451
2016-10-01T06:59:00,113606,Hans-Thoma-Platz,8.68266,49.42816,126801,Haberstr.,8.682777,49.365091
2016-10-01T07:16:00,124202,Studentenwohnheim,8.662679,49.418702,114802,"Schönauer Abtweg",8.75969,49.42071
2016-10-01T07:40:00,203606,Riedsaumpark,8.404692,49.495308,245405,Bäckerweg,8.507356,49.505025
2016-10-01T07:55:00,687705,"Strandbad Blies",8.41541,49.475622,252205,Neuostheim,8.52254,49.477548
2016-10-01T08:19:00,132301,Neckarschule,8.756981,49.419401,210505,Shellhaus,8.446341,49.470011
2016-10-01T09:17:00,257305,"Graudenzer Linie",8.481112,49.539356,216602,"Zum Guten Hirten",8.386845,49.488341
2016-10-01T09:25:00,188602,Georgi-Marktplatz,8.68889,49.34955,588302,"Burg Waldeck",8.785837,49.487931
2016-10-01T09:46:00,243405,Gutenbergstraße,8.50406,49.49287,220301,Ruchheim,8.32755,49.478501
2016-10-01T09:52:00,204105,Schwalbenweg,8.41799,49.493927,62106,"Edingen Rathaus",8.613064,49.447564
2016-10-01T10:39:00,211705,"Maudach Gemeindehaus",8.38304,49.45524,235005,Muskatormühle,8.449657,49.531585
2016-10-01T11:52:00,125901,Steinhofweg,8.646241,49.394187,256306,Krähenflügel,8.457486,49.551417
2016-10-01T12:47:00,261602,Roche,8.468683,49.528692,246506,Strohmarkt,8.470116,49.486261
2016-10-01T13:03:00,124101,"Sportzentrum Nord",8.660608,49.426444,232402,Talstraße,8.525015,49.495341
2016-10-01T14:15:00,259206,"Zähringer Straße",8.559936,49.463635,69702,"Eppelheim Rathaus",8.629096,49.401611
2016-10-01T14:25:00,252805,Fr.-Nansen-Weg,8.540878,49.412715,603105,"Innerer Heckweg",8.563189,49.459265
2016-10-01T15:13:00,170002,"Medizinische Klinik",8.666351,49.414627,262002,Freilichtbühne,8.49327,49.53392
2016-10-01T15:41:00,255705,"Bürstadter Straße",8.453338,49.535491,204206,Sternstraße,8.415567,49.496022
2016-10-01T16:49:00,302405,Husarenweg,8.500058,49.468867,241801,"MA Hauptfriedhof",8.49114,49.490969
2016-10-01T18:37:00,237405,Sonnenschein,8.505328,49.521977,249701,Markuskirche,8.475596,49.464621
2016-10-01T18:39:00,124502,Hans-Bunte-Str.,8.640388,49.406744,122501,Blumenthalstr.,8.68906,49.421556
2016-10-01T18:55:00,300002,Neckarbrücke,8.791773,49.394581,231202,"Am Aubuckel",8.51933,49.488511
2016-10-01T21:12:00,133304,Heiligenbergschule,8.679328,49.423398,687805,"Inden Neugärten",8.36599,49.47887
2016-10-01T21:25:00,554702,"Käfertal Bahnhof",8.518556,49.510136,108801,"Im Anger",8.767063,49.411621
2016-10-01T21:33:00,217405,Kurt-Schumacher-Str.,8.39909,49.52549,82902,Lutherstr.,8.69089,49.41736
2016-10-01T22:13:00,608006,"Am Salzkai",8.46081,49.49641,570002,Oggersheim,8.364314,49.488298
2016-10-01T22:17:00,208101,"LU Hauptfriedhof",8.424069,49.483946,124801,"Ziegelh. Friedhof",8.76095,49.41959
2016-10-01T22:55:00,219102,Brückweg,8.42593,49.44615,220301,Ruchheim,8.32755,49.478501
2016-10-01T23:31:00,264312,"Wallstadt Ost",8.553981,49.497288,252401,Schwindstraße,8.518294,49.4784
2016-10-02T00:29:00,587101,Gewerbegebiet,8.808979,49.426591,114502,Bierhelderhof,8.705376,49.389929
2016-10-02T00:35:00,169311,"HD Fachhochschule",8.649356,49.415694,248805,Freiheitsplatz,8.479514,49.45958
2016-10-02T02:01:00,129602,"Käfertaler Str.",8.644773,49.430254,236606,Maximilianstraße,8.485739,49.482564
2016-10-02T02:02:00,117702,Nansenstr.,8.686187,49.389952,260205,"Magdeburger Straße",8.546999,49.51379
2016-10-02T03:36:00,128703,"S-Bf Schlierb./Zgh.",8.761798,49.415282,231507,Feudenheim,8.53847,49.48407
2016-10-02T03:38:00,256207,Kirschgartshausen,8.447633,49.581194,257906,Sachsenstraße,8.546428,49.507427
2016-10-02T06:40:00,259111,"Seckenheim OEG-Bf.",8.569489,49.462242,209007,Marienkirche,8.43043,49.485144
2016-10-02T08:50:00,127402,"Ortenauer Str.",8.68779,49.376861,253005,Hallenweg,8.535053,49.448886
2016-10-02T09:06:00,122602,Technologiepark,8.676353,49.419414,203706,Rottstückerweg,8.41598,49.502671
2016-10-02T09:35:00,215106,Pettenkoferstraße,8.422367,49.486024,213906,"Mundenheim Nord",8.432754,49.465653
2016-10-02T10:22:00,255505,Bartholomäuskirche,8.446834,49.545651,253906,Martinistraße,8.52677,49.443144
2016-10-02T10:46:00,231202,"Am Aubuckel",8.51933,49.488511,261601,Roche,8.469148,49.528296
2016-10-02T11:00:00,114906,Rudolf-Diesel-Str.,8.67719,49.39612,260601,Vogelstang,8.543754,49.511757
2016-10-02T12:02:00,215205,"Oggersheim Friedhof",8.367368,49.497168,220301,Ruchheim,8.32755,49.478501
2016-10-02T12:37:00,204861,Marienkrankenhaus,8.409136,49.459558,263205,Alemannenstraße,8.553145,49.494956
2016-10-02T12:39:00,555706,Blücherstraße,8.527681,49.487314,207806,Halberg,8.451111,49.477152
2016-10-02T13:24:00,680305,Irisstraße,8.371997,49.458982,203102,"Friesenheim Ost",8.421054,49.501799
2016-10-02T15:07:00,240506,Jungbuschschule,8.45914,49.495509,129402,"Grenzhöfer Weg",8.644927,49.426487
2016-10-02T15:48:00,114501,Bierhelderhof,8.705116,49.390146,118012,Ochsenkopf,8.653085,49.409427
2016-10-02T15:48:00,236905,"Neues Leben",8.502937,49.51926,238906,Soldnerstraße,8.518041,49.453208
2016-10-02T16:22:00,283306,"Saarburger Ring",8.57549,49.44573,554612,"Im Rott",8.527988,49.507693
2016-10-02T17:46:00,242205,Hochuferstraße,8.48751,49.50388,261606,Roche,8.468916,49.528704
2016-10-02T18:16:00,114904,Rudolf-Diesel-Str.,8.67908,49.3968,302405,Husarenweg,8.500058,49.468867
2016-10-02T18:24:00,604105,"MA Rathaus/REM",8.462821,49.488982,283005,"Feuerwache Nord",8.50861,49.51745
2016-10-02T20:11:00,233905,Einsteinstraße,8.459787,49.519372,261402,Erlöserkirche,8.4957,49.52617
2016-10-02T20:25:00,554701,"Käfertal Bahnhof",8.518189,49.50963,132802,"Steinbacher Tal",8.753788,49.422536
2016-10-02T20:39:00,256001,Hanfstraße,8.451201,49.538181,237906,"Zäher Wille",8.494686,49.521564
2016-10-02T21:34:00,344701,Marktplatz,8.809844,49.437077,235706,Lanzvilla,8.487313,49.484265
2016-10-03T00:08:00,214706,"Am Weidenschlag",8.375809,49.505728,210406,Schützenstraße,8.447742,49.47768
2016-10-03T00:27:00,385111,"Viernheim Bahnhof",8.5825,49.53534,114801,"Schönauer Abtweg",8.759832,49.42072
2016-10-03T00:59:00,130221,"Wieblingen Mitte",8.645849,49.423843,245803,Rheinstraße,8.458136,49.49089
2016-10-03T01:29:00,236201,Speckweg,8.49903,49.5206,113511,Kapellenweg,8.68708,49.42473
2016-10-03T01:53:00,247504,Wasserturm,8.47382,49.484705,259505,Schlittweg,8.543745,49.455891
2016-10-03T03:39:00,616005,"Birkenauer Straße",8.530779,49.515469,243102,Landwehrstraße,8.49032,49.50576
2016-10-03T04:11:00,258906,Kapellenplatz,8.55518,49.46278,115202,"Czernybrücke Süd",8.669158,49.405089
2016-10-03T05:34:00,252306,Carl-Benz-Stadion,8.5023,49.477822,215206,"Oggersheim Friedhof",8.367613,49.497243
2016-10-03T07:13:00,232402,Talstraße,8.525015,49.495341,231806,"Feudenheim Kreuz",8.536764,49.486011
2016-10-03T08:39:00,118602,"Rohrbacher Grenzweg",8.697096,49.396125,114902,Rudolf-Diesel-Str.,8.67906,49.39688
2016-10-03T12:54:00,249701,Markuskirche,8.475596,49.464621,263511,"Wallstadt Bahnhof",8.548714,49.498805
2016-10-03T14:19:00,233805,Dürstelschlag,8.452363,49.510751,261605,Roche,8.469127,49.528416
2016-10-03T14:24:00,299501,Hanfmarkt,8.7967,49.39473,554301,Theresienkrankenhaus,8.480702,49.489768
2016-10-03T14:50:00,130201,"Wieblingen Mitte",8.645737,49.423642,235005,Muskatormühle,8.449657,49.531585
2016-10-03T15:26:00,209605,"LU Rathaus",8.440965,49.484255,298602,"Neckargemünd Bf",8.78721,49.3941
2016-10-03T17:16:00,126202,"Baden-Badener Straße",8.682425,49.376722,752105,"Rheinallee Süd",8.455357,49.473888
2016-10-03T18:47:00,131602,Wielandtstr.,8.682043,49.417463,254506,Pfingstberg,8.529174,49.445991
2016-10-03T19:19:00,215206,"Oggersheim Friedhof",8.367613,49.497243,231106,Adolf-Damaschke-Ring,8.521015,49.493407
2016-10-03T19:34:00,252208,Neuostheim,8.523403,49.477218,241205,Gewerkschaftshaus,8.475774,49.490228
2016-10-03T20:27:00,127804,"Rohrbach Süd",8.688865,49.36548,238610,Luzenberg,8.47587,49.51646
2016-10-03T20:36:00,247205,Untermühlaustraße,8.471166,49.510791,210208,"Friesenheim Mitte",8.42025,49.497574
2016-10-03T22:26:00,554005,Franz-Sigel-Straße,8.477025,49.462982,554808,"Alte Feuerwache",8.472299,49.495806
2016-10-03T22:32:00,119403,Stadtwerke,8.6825,49.405082,146702,"Bärsbach Ort",8.767358,49.504889
2016-10-03T22:55:00,115902,Hans-Böckler-Str.,8.692703,49.405515,145708,"S-Bf West-/Südstadt",8.689382,49.398564
2016-10-03T23:09:00,600505,Akademiestraße,8.456721,49.4924,249705,Markuskirche,8.47539,49.46474
2016-10-03T23:57:00,125501,"Kurpfalzring Süd",8.640974,49.40272,114903,Rudolf-Diesel-Str.,8.67783,49.39601
2016-10-04T00:06:00,247601,Weberstraße,8.486068,49.476475,233506,"Fried. Vogesenstraße",8.578992,49.442503
2016-10-04T01:00:00,238401,Meeräckerplatz,8.471359,49.469235,261806,Föhrenweg,8.500046,49.53711
2016-10-04T01:19:00,258006,"Tilsiter Straße",8.467593,49.552377,251601,Kopernikusstraße,8.477642,49.478401
2016-10-04T02:24:00,248706,Friedrichstraße,8.494335,49.453781,256701,Sandhofen,8.449414,49.542136
2016-10-04T03:55:00,241304,Bonifatiuskirche,8.48851,49.49937,238608,Luzenberg,8.475291,49.516266
2016-10-04T03:59:00,300002,Neckarbrücke,8.791773,49.394581,124002,Schwimmbad,8.659323,49.420361
2016-10-04T04:08:00,243311,Lessingstraße,8.485588,49.489203,111701,Karl-Christ-Str.,8.76094,49.421163
2016-10-04T04:33:00,414621,"Weinheim Alt. OEG-Bf",8.665147,49.549111,240305,Dudenstraße,8.500978,49.500756
2016-10-04T04:45:00,131302,"Ziegelhausen Kirche",8.76117,49.417824,244805,Neckarvorlandstraße,8.444304,49.504465
2016-10-04T04:51:00,259505,Schlittweg,8.543745,49.455891,232505,Ziethenstraße,8.518966,49.49011
2016-10-04T05:15:00,126011,Brückenstr.,8.692092,49.41524,248301,"Dannstadter Straße",8.50896,49.44634
2016-10-04T05:25:00,113512,Kapellenweg,8.68637,49.42505,554701,"Käfertal Bahnhof",8.518189,49.50963
2016-10-04T06:17:00,411811,Händelstraße,8.655534,49.548637,248606,"Neckarau Friedhof",8.50152,49.455054
2016-10-04T06:38:00,460606,Hauptstraße,8.419972,49.445182,128801,Carl-Bosch-Museum,8.72918,49.41571
2016-10-04T06:54:00,555701,Blücherstraße,8.527329,49.487379,241806,"MA Hauptfriedhof",8.4908,49.490838
2016-10-04T07:53:00,250720,"Neckarau West",8.482298,49.455672,245605,"St. Hildegard",8.50843,49.50388
2016-10-04T08:22:00,554301,Theresienkrankenhaus,8.480702,49.489768,134001,"Villa Bosch",8.73452,49.41546
2016-10-04T08:45:00,687806,"Inden Neugärten",8.36605,49.47905,238005,Pyramidenstraße,8.464511,49.506709
2016-10-04T09:15:00,216305,Uferstraße,8.374793,49.504479,687705,"Strandbad Blies",8.41541,49.475622
2016-10-04T09:29:00,244405,Nationaltheater,8.476957,49.487779,251406,"Am Schäferstock",8.503256,49.47504
2016-10-04T09:38:00,679502,Messplatz,8.67549,49.39122,110602,Schleifengrundweg,8.757946,49.423915
2016-10-04T10:24:00,664905,"Westlich B9",8.35317,49.483778,253405,Karl-Schwaner-Straße,8.53373,49.419124
2016-10-04T10:55:00,112101,Boxbergring,8.704338,49.378254,113003,Mombertplatz,8.704279,49.369079
2016-10-04T11:34:00,236105,"Käfertal Friedhof",8.519057,49.515403,206006,BASF,8.43027,49.49586
2016-10-04T14:09:00,302702,"SAP Arena Süd",8.517126,49.462804,256707,Sandhofen,8.449525,49.541985
2016-10-04T15:56:00,112801,Forum,8.70555,49.364086,207506,Goerdelerplatz,8.431757,49.489317
2016-10-04T16:42:00,211806,"Kärntner Straße",8.403975,49.457198,236405,Kutzerweiher,8.490777,49.483026
2016-10-04T16:54:00,202705,Rüdigerstraße,8.394856,49.528354,127001,"Im Breitspiel",8.686264,49.365172
2016-10-04T17:06:00,240401,Exerzierplatz,8.497362,49.503161,242906,Luisenp./Technoseum,8.496068,49.478662
2016-10-04T17:15:00,664606,"LU Völklinger Straße",8.40443,49.48856,302605,Gerd-Dehof-Platz,8.508456,49.465666
2016-10-04T17:37:00,114504,Bierhelderhof,8.70504,49.39029,262702,Papyrus,8.459549,49.533616
2016-10-04T17:40:00,233005,Neudorfstraße,8.57594,49.440246,108801,"Im Anger",8.767063,49.411621
2016-10-04T18:00:00,252412,Schwindstraße,8.518961,49.478402,62105,"Edingen Rathaus",8.613527,49.447228
2016-10-04T18:19:00,241602,Handelshafen,8.453653,49.491848,259506,Schlittweg,8.543518,49.455858
2016-10-04T19:16:00,240305,Dudenstraße,8.500978,49.500756,213908,"Mundenheim Nord",8.431917,49.465454
2016-10-04T20:40:00,262606,"Waldhof Nord",8.48111,49.5325,121801,Ilse-Krall-Str.,8.67338,49.38626
2016-10-04T20:54:00,238610,Luzenberg,8.47587,49.51646,259801,Carl-Benz-Bad,8.5053,49.52631
2016-10-04T21:02:00,213305,Stifterstraße,8.435263,49.468673,244306,Mühldorferstraße,8.488087,49.476958
2016-10-04T21:18:00,114403,Betriebshof,8.674682,49.407427,664901,"Westlich B9",8.354283,49.483492
2016-10-04T22:24:00,233405,"Friedr. Südbahnhof",8.57257,49.438666,113901,"Alte Brücke",8.708735,49.413449
2016-10-04T23:34:00,114602,Bismarckplatz,8.692874,49.409373,252205,Neuostheim,8.52254,49.477548
2016-10-05T00:42:00,115301,"Drei Eichen",8.723647,49.380226,679402,Montpellierbrücke,8.67874,49.40079
2016-10-05T00:51:00,213906,"Mundenheim Nord",8.432754,49.465653,238906,Soldnerstraße,8.518041,49.453208
2016-10-05T01:52:00,251105,Lochgärten,8.499688,49.470157,127201,Kolbenzeil,8.68157,49.373791
2016-10-05T04:03:00,145402,"S-Bf Pfaffeng./Wbl.",8.641153,49.412015,237905,"Zäher Wille",8.494029,49.521719
2016-10-05T05:36:00,219720,Rheingönheim,8.418309,49.443452,264206,Hansastraße,8.468399,49.509244
2016-10-05T05:36:00,144202,"Abzw. Bärsbach",8.772288,49.497947,121601,Odenwaldstr.,8.669159,49.379042
2016-10-05T07:17:00,252201,Neuostheim,8.522575,49.477687,239401,Tannhäuserring,8.477707,49.452414
2016-10-05T07:19:00,114407,Betriebshof,8.674827,49.407622,640701,Heiligenbergstr.,8.69381,49.429706
2016-10-05T07:55:00,62005,"Pfälzer Hof",8.609087,49.450846,389405,"SAP Arena S-Bahnhof",8.51642,49.460299
2016-10-05T07:59:00,114609,Bismarckplatz,8.692893,49.409732,118101,Peterskirche,8.705417,49.408916
2016-10-05T08:16:00,136401,"Peterstaler Str.",8.749271,49.43475,554702,"Käfertal Bahnhof",8.518556,49.510136
2016-10-05T08:27:00,235706,Lanzvilla,8.487313,49.484265,236805,Kometenweg,8.5119,49.5234
2016-10-05T08:49:00,216502,Wilhelm-Tell-Straße,8.370006,49.490381,247305,"Verl. Jungbuschstr.",8.452177,49.494661
2016-10-05T10:07:00,554302,Theresienkrankenhaus,8.48108,49.4902,244607,"Neckarstadt West",8.459882,49.502838
2016-10-05T10:25:00,206008,BASF,8.432609,49.494946,268005,Gotenstraße,8.555257,49.499727
2016-10-05T10:43:00,240106,Kunstverein,8.487515,49.479588,126103,Stotz,8.643786,49.402613
2016-10-05T12:06:00,231520,Feudenheim,8.53739,49.48409,252706,Faltkistenwerk,8.51059,49.421346
2016-10-05T13:09:00,234446,Max-Planck-Straße,8.45699,49.51908,121801,Ilse-Krall-Str.,8.67338,49.38626
2016-10-05T13:55:00,219720,Rheingönheim,8.418309,49.443452,241304,Bonifatiuskirche,8.48851,49.49937
2016-10-05T14:14:00,220106,"Am Hüttengraben",8.353573,49.481239,239402,Tannhäuserring,8.476979,49.452186
2016-10-05T14:55:00,127702,Saarstr.,8.686615,49.386063,114405,Betriebshof,8.675556,49.407956
2016-10-05T16:34:00,212505,"Am Schwanen",8.429125,49.46292,238806,Diffenebrücke,8.472348,49.516192
2016-10-05T16:54:00,218505,"Brüsseler Ring",8.384525,49.538538,251306,Teufelsloch,8.501332,49.472778
2016-10-05T18:07:00,62901,"Neu-Ed. Gewerbegeb.",8.591368,49.454268,132602,Schweizertalstr.,8.753273,49.448227
2016-10-05T19:02:00,112802,Forum,8.705679,49.36408,209806,"Bayreuther Straße",8.419753,49.477777
2016-10-05T19:14:00,554707,"Käfertal Bahnhof",8.51818,49.50982,127303,Markscheide,8.690511,49.386113
2016-10-05T20:03:00,115302,"Drei Eichen",8.72367,49.38026,110901,Moselbrunnenweg,8.76067,49.42257
2016-10-05T21:09:00,114404,Betriebshof,8.674832,49.407513,249906,Hochschule,8.48386,49.469421
2016-10-05T21:22:00,205301,Ammoniakstraße,8.41067,49.504922,212206,"Maudach Ortseingang",8.38927,49.4551
2016-10-05T21:35:00,112201,Buchwaldweg,8.705261,49.3704,204808,Marienkrankenhaus,8.409149,49.459444
2016-10-05T22:33:00,116902,"Kohlhof Fachklinik",8.735452,49.389549,132902,Stiftsmühle,8.743805,49.417342
2016-10-05T22:56:00,132502,Rainweg,8.746769,49.430216,257406,"Haderslebener Straße",8.481033,49.54229
2016-10-05T23:03:00,65802,"Ellerstadt West",8.255178,49.462614,252510,"Rheinau Bahnhof",8.535634,49.424074
2016-10-05T23:37:00,256006,Hanfstraße,8.451229,49.538363,262805,Taunusplatz,8.48504,49.52423
2016-10-05T23:44:00,203102,"Friesenheim Ost",8.421054,49.501799,460606,Hauptstraße,8.419972,49.445182
2016-10-05T23:51:00,231806,"Feudenheim Kreuz",8.536764,49.486011,231106,Adolf-Damaschke-Ring,8.521015,49.493407
2016-10-06T00:11:00,263406,Kiesäcker,8.536477,49.498463,261605,Roche,8.469127,49.528416
2016-10-06T01:00:00,608006,"Am Salzkai",8.46081,49.49641,204808,Marienkrankenhaus,8.409149,49.459444
2016-10-06T01:01:00,114801,"Schönauer Abtweg",8.759832,49.42072,664506,"Ebertpark Süd",8.414871,49.487056
2016-10-06T01:30:00,120002,Albert-Fritz-Str.,8.67236,49.38318,262805,Taunusplatz,8.48504,49.52423
2016-10-06T03:08:00,260911,"Vogelstang West",8.53113,49.50656,344301,Steinachbrücke,8.801416,49.466984
2016-10-06T04:56:00,681006,Heuweg,8.409472,49.473308,231501,Feudenheim,8.53763,49.48404
2016-10-06T04:58:00,389405,"SAP Arena S-Bahnhof",8.51642,49.460299,120301,"S-Bf Kirchh./Rohrb.",8.675299,49.378775
2016-10-06T05:10:00,249605,"Neckarau Marktplatz",8.491998,49.45304,249901,Hochschule,8.484007,49.469975
2016-10-06T05:18:00,253905,Martinistraße,8.527095,49.443263,260606,Vogelstang,8.543965,49.512463
2016-10-06T05:30:00,266705,"Aufden Ried",8.53785,49.50258,145402,"S-Bf Pfaffeng./Wbl.",8.641153,49.412015
2016-10-06T07:35:00,132901,Stiftsmühle,8.744111,49.417569,257205,Brockenweg,8.479813,49.557229
2016-10-06T07:52:00,133301,Heiligenbergschule,8.679029,49.423316,244205,Moselstraße,8.483657,49.498804
2016-10-06T07:57:00,245301,Planetarium,8.489474,49.476617,248905,Helmertstraße,8.513884,49.454212
2016-10-06T08:55:00,246202,Schloss,8.463276,49.484592,247006,Ulmenweg,8.49323,49.50734
2016-10-06T09:23:00,242202,Hochuferstraße,8.48758,49.50325,234806,Rheinrottstraße,8.454613,49.511875
2016-10-06T09:24:00,554405,Universitätsklinikum,8.48366,49.49365,233905,Einsteinstraße,8.459787,49.519372
2016-10-06T09:36:00,554302,Theresienkrankenhaus,8.48108,49.4902,262705,Papyrus,8.460079,49.533402
2016-10-06T09:49:00,348212,"Schriesheim Süd",8.6635,49.463879,344302,Steinachbrücke,8.801389,49.467193
2016-10-06T10:32:00,299502,Hanfmarkt,8.79659,49.3948,129902,Lerchenbuckel,8.653234,49.41685
2016-10-06T11:12:00,730306,Kolpingstraße,8.482791,49.486636,248905,Helmertstraße,8.513884,49.454212
2016-10-06T11:37:00,202901,Ebertpark/Fichtestr.,8.421318,49.491477,243505,Lortzingstraße,8.467873,49.497198
2016-10-06T13:05:00,119502,Sternwarte,8.72728,49.40083,118801,"Im Neulich",8.699441,49.430053
2016-10-06T14:58:00,114602,Bismarckplatz,8.692874,49.409373,130801,Köpfel,8.742803,49.423134
2016-10-06T15:33:00,219206,Friedensstraße,8.423574,49.44959,231102,Adolf-Damaschke-Ring,8.520984,49.493641
2016-10-06T15:42:00,124001,Schwimmbad,8.659574,49.42035,119202,"St. Vinc.-Krankenhaus",8.697311,49.412085
2016-10-06T16:33:00,410512,Blumenstraße,8.638593,49.544466,249906,Hochschule,8.48386,49.469421
2016-10-06T17:12:00,116002,"HD Hauptbahnhof",8.675296,49.405114,118701,"Römerkreis Süd",8.684568,49.404414
2016-10-06T17:13:00,554505,"Mannheimer Straße",8.51283,49.508398,231601,Hölderlinstraße,8.52991,49.496471
2016-10-06T18:07:00,248706,Friedrichstraße,8.494335,49.453781,554301,Theresienkrankenhaus,8.480702,49.489768
2016-10-06T18:12:00,261201,Altrheinstraße,8.471178,49.525371,205005,Pommernstraße,8.405855,49.454255
2016-10-06T18:46:00,123601,Mönchhofschule,8.687235,49.417312,302405,Husarenweg,8.500058,49.468867
2016-10-06T19:12:00,122803,Bunsengymnasium,8.67696,49.41692,214101,Schillerschule,8.427852,49.460292
2016-10-06T19:16:00,257020,Blumenau,8.479401,49.561598,210102,Rottstraße,8.448253,49.473756
2016-10-06T19:37:00,242305,Hombuschstraße,8.460403,49.516022,258712,"Deutscher Hof",8.55702,49.47087
2016-10-06T19:52:00,248706,Friedrichstraße,8.494335,49.453781,254404,"Rheinau Karlsplatz",8.522641,49.438466
2016-10-06T20:07:00,214905,"Bexbacher Straße",8.397213,49.492064,133401,Sandwingert,8.64437,49.41897
2016-10-06T20:51:00,261705,Eschenhof,8.504224,49.535546,216006,Rheinhorststraße,8.37124,49.503305
2016-10-06T21:26:00,555306,Schönau,8.474775,49.546858,410912,"Weinheim Hauptbahnh.",8.66546,49.55121
2016-10-06T21:43:00,232805,Langlachweg,8.568925,49.447228,123312,Kußmaulstr.,8.69055,49.419003
2016-10-06T21:55:00,239705,Bgm.-Fuchs-Straße,8.46385,49.501156,254495,"Rheinau Karlsplatz",8.522798,49.438967
2016-10-06T22:20:00,212706,"Mundenheim Bahnhof",8.421978,49.461796,263007,Waldstraße,8.48856,49.52906
2016-10-06T23:26:00,210401,Schützenstraße,8.448925,49.477443,202305,Deichstraße,8.386383,49.529381
2016-10-07T00:07:00,219705,Rheingönheim,8.418998,49.443409,282905,Kirchwaldstraße,8.49112,49.53494
2016-10-07T00:28:00,116101,Hirschgasse,8.716972,49.416292,69701,"Eppelheim Rathaus",8.62883,49.401666
2016-10-07T00:29:00,425602,"Schwetzinger Terrass",8.67164,49.39946,204001,Schopenhauerstraße,8.426915,49.496743
2016-10-07T02:18:00,555805,"Antwerpener Straße",8.505135,49.417675,414613,"Weinheim Alt. OEG-Bf",8.66504,49.54923
2016-10-07T02:36:00,299902,Melacpass,8.78147,49.392871,145701,"S-Bf West-/Südstadt",8.689376,49.398224
2016-10-07T02:57:00,232406,Talstraße,8.524839,49.495178,220105,"Am Hüttengraben",8.35398,49.481371
2016-10-07T03:42:00,258805,Hochstätt,8.539355,49.453211,299701,"Kümmelbacher Hof",8.776765,49.392932
2016-10-07T04:04:00,555302,Schönau,8.47426,49.54725,210101,Rottstraße,8.448263,49.474054
2016-10-07T04:27:00,248302,"Dannstadter Straße",8.509332,49.446039,600705,Verbindungskanal,8.451679,49.500889
2016-10-07T04:50:00,111701,Karl-Christ-Str.,8.76094,49.421163,218905,"Rheingönheim Bahnhof",8.40941,49.44679
2016-10-07T06:52:00,133301,Heiligenbergschule,8.679029,49.423316,555606,"Sonderburger Straße",8.481022,49.535337
2016-10-07T08:15:00,132401,"Neuer Weg",8.752939,49.417451,188601,Georgi-Marktplatz,8.68888,49.3492
2016-10-07T09:11:00,214906,"Bexbacher Straße",8.398313,49.492066,615906,Holländerstraße,8.509025,49.428139
2016-10-07T09:48:00,212305,"Maudacher Bruch",8.398117,49.456808,239401,Tannhäuserring,8.477707,49.452414
2016-10-07T10:24:00,209601,"LU Rathaus",8.443214,49.485088,188601,Georgi-Marktplatz,8.68888,49.3492
2016-10-07T10:26:00,115902,Hans-Böckler-Str.,8.692703,49.405515,202305,Deichstraße,8.386383,49.529381
2016-10-07T11:48:00,299862,"Letzter Heller",8.8008,49.393838,302612,Gerd-Dehof-Platz,8.510041,49.465625
2016-10-07T12:42:00,221964,"BASF Süd",8.435993,49.493145,126704,"Freiburger Str.",8.686339,49.374008
2016-10-07T12:58:00,133702,"Chirurgische Klinik",8.67334,49.41376,250405,Strandbad,8.452871,49.447683
2016-10-07T13:06:00,254807,"Rotterdamer S. Süd",8.514587,49.421403,263402,Kiesäcker,8.536587,49.498917
2016-10-07T13:27:00,640502,Bachlenz,8.687984,49.430358,234445,Max-Planck-Straße,8.45688,49.51921
2016-10-07T13:31:00,261606,Roche,8.468916,49.528704,242901,Luisenp./Technoseum,8.495746,49.478978
2016-10-07T13:42:00,241801,"MA Hauptfriedhof",8.49114,49.490969,128202,"Im Grund",8.770341,49.414136
2016-10-07T13:55:00,203736,Rottstückerweg,8.41625,49.50254,263402,Kiesäcker,8.536587,49.498917
2016-10-07T14:10:00,216502,Wilhelm-Tell-Straße,8.370006,49.490381,255506,Bartholomäuskirche,8.446708,49.546042
2016-10-07T15:27:00,209008,Marienkirche,8.4299,49.48507,299301,Friedrich-Ebert-Str.,8.80363,49.38863
2016-10-07T15:50:00,133702,"Chirurgische Klinik",8.67334,49.41376,300002,Neckarbrücke,8.791773,49.394581
2016-10-07T16:14:00,238206,Amselstraße,8.459138,49.545895,244601,"Neckarstadt West",8.459935,49.50289
2016-10-07T17:11:00,674020,"Londoner Ring",8.388263,49.543867,205107,Schlesierstraße,8.405147,49.451956
2016-10-07T17:22:00,204861,Marienkrankenhaus,8.409136,49.459558,245211,Pestalozzischule,8.482306,49.478551
2016-10-07T17:56:00,216006,Rheinhorststraße,8.37124,49.503305,570002,Oggersheim,8.364314,49.488298
2016-10-07T18:05:00,253201,"Mülheimer Straße",8.531419,49.428343,218705,"Pfingstweide Zentrum",8.3888,49.54041
2016-10-07T18:59:00,113401,Jellinekstrasse,8.705279,49.361523,255606,"Blumenauer Weg",8.448225,49.555514
2016-10-07T21:06:00,216501,Wilhelm-Tell-Straße,8.37076,49.49057,245802,Rheinstraße,8.458235,49.490993
2016-10-07T21:35:00,187902,"Leimen Friedhof",8.69351,49.34345,337302,Viktoriastraße,8.68235,49.37866
2016-10-07T21:44:00,273405,Robert-Lauth-Straße,8.383115,49.509202,299862,"Letzter Heller",8.8008,49.393838
2016-10-07T22:01:00,206706,Bgm.-Krafft-Platz,8.450485,49.473261,85601,Friedelsheim,8.224837,49.45802
2016-10-07T22:31:00,460605,Hauptstraße,8.420769,49.445311,114606,Bismarckplatz,8.6933,49.40967
2016-10-07T22:31:00,247501,Wasserturm,8.47321,49.48497,236906,"Neues Leben",8.502577,49.519312
2016-10-07T22:35:00,215505,Hollergärten,8.383613,49.48958,254906,"Ruhrorter Straße",8.519132,49.421478
2016-10-07T22:37:00,557505,"Haus Waldhof",8.48608,49.52592,212105,"Maudacher Straße",8.415829,49.461268
2016-10-07T22:45:00,614001,"Quartieram Turm",8.682125,49.382006,242406,Ida-Scipio-Heim,8.480118,49.499224
2016-10-07T22:51:00,252206,Neuostheim,8.522896,49.477473,120801,Hagellachstr.,8.672647,49.378274
2016-10-07T23:31:00,110401,Hirtenaue,8.75983,49.42635,118401,Rathaus-Bergbahn,8.71191,49.41143
2016-10-07T23:50:00,244706,Abendakademie,8.470052,49.491827,242106,Herzogenriedstraße,8.471474,49.508423
2016-10-08T00:03:00,664706,"Burbacher Straße",8.394955,49.489951,302805,"Technoseum Süd",8.493539,49.475858
2016-10-08T00:03:00,239702,Bgm.-Fuchs-Straße,8.463843,49.501265,116701,"MPI Kernphysik",8.707654,49.388892
2016-10-08T01:45:00,238604,Luzenberg,8.475047,49.516369,679503,Messplatz,8.675351,49.391523
2016-10-08T03:36:00,239105,"Stolberger Straße",8.474073,49.517846,65802,"Ellerstadt West",8.255178,49.462614
2016-10-08T07:13:00,259450,"Seckenheim Rathaus",8.563188,49.467029,218506,"Brüsseler Ring",8.38438,49.53752
2016-10-08T07:45:00,244407,Nationaltheater,8.477999,49.487834,109301,Gutleuthofweg,8.76423,49.414296
2016-10-08T08:20:00,62106,"Edingen Rathaus",8.613064,49.447564,128401,"S-Bf Orthopädie",8.77493,49.41033
2016-10-08T10:39:00,261206,Altrheinstraße,8.471197,49.525592,206105,"Edigheim Friedhof",8.394123,49.530339
2016-10-08T10:46:00,115802,Gneisenaustr.,8.667713,49.408531,250705,"Neckarau West",8.481988,49.455165
2016-10-08T10:49:00,218205,Stützelstraße,8.40065,49.516477,344401,Festplatz,8.811391,49.430536
2016-10-08T11:35:00,129802,E.-v.-Thadden-Platz,8.649167,49.423978,259706,Suebenheim,8.570057,49.45483
2016-10-08T12:10:00,62706,"Neckarh. West",8.589802,49.469372,114609,Bismarckplatz,8.692893,49.409732
2016-10-08T13:31:00,239401,Tannhäuserring,8.477707,49.452414,208002,"LU Hauptbahnhof",8.434937,49.479203
2016-10-08T13:44:00,251405,"Am Schäferstock",8.50424,49.47485,604106,"MA Rathaus/REM",8.463582,49.489551
2016-10-08T13:49:00,238610,Luzenberg,8.47587,49.51646,232005,Neckarplatt,8.512492,49.489085
2016-10-08T14:22:00,216502,Wilhelm-Tell-Straße,8.370006,49.490381,664605,"LU Völklinger Straße",8.40419,49.48867
2016-10-08T14:37:00,212106,"Maudacher Straße",8.415736,49.461126,209001,Marienkirche,8.430869,49.485254
2016-10-08T15:38:00,125502,"Kurpfalzring Süd",8.64084,49.402535,260901,"Vogelstang West",8.532033,49.50603
2016-10-08T15:57:00,131902,Löwen,8.75371,49.444105,187902,"Leimen Friedhof",8.69351,49.34345
2016-10-08T17:08:00,246205,Schloss,8.462137,49.484659,600705,Verbindungskanal,8.451679,49.500889
2016-10-08T18:03:00,554411,Universitätsklinikum,8.483875,49.493571,130202,"Wieblingen Mitte",8.646276,49.423471
2016-10-08T20:23:00,127601,"Rohrbach Markt",8.68789,49.38035,218706,"Pfingstweide Zentrum",8.388932,49.540466
2016-10-08T21:03:00,675505,"Universität West",8.457501,49.487646,252212,Neuostheim,8.52333,49.477471
2016-10-08T21:12:00,265906,"Fürstenwalder Weg",8.53557,49.510302,119501,Sternwarte,8.72739,49.40078
2016-10-08T21:21:00,257805,"Eislebener Weg",8.550717,49.508902,685606,Eastsite,8.505948,49.475432
2016-10-08T22:20:00,260305,"Potsdamer Weg",8.531318,49.510239,124001,Schwimmbad,8.659574,49.42035
2016-10-08T22:31:00,127303,Markscheide,8.690511,49.386113,203001,Kreuzstraße,8.412839,49.497734
2016-10-08T22:36:00,344302,Steinachbrücke,8.801389,49.467193,78806,"FT Kugelfang",8.37559,49.53635
2016-10-08T22:47:00,249705,Markuskirche,8.47539,49.46474,124702,"Im Buschgewann",8.648679,49.397416
2016-10-09T00:28:00,328405,Nachtweide,8.405202,49.541306,232002,Neckarplatt,8.5122,49.488908
2016-10-09T02:38:00,236201,Speckweg,8.49903,49.5206,255705,"Bürstadter Straße",8.453338,49.535491
2016-10-09T03:00:00,62005,"Pfälzer Hof",8.609087,49.450846,411812,Händelstraße,8.65638,49.54892
2016-10-09T04:23:00,612002,"Im Hauskorb",8.796715,49.469441,255705,"Bürstadter Straße",8.453338,49.535491
2016-10-09T04:34:00,202406,"Edigheim Kirche",8.392655,49.52971,253406,Karl-Schwaner-Straße,8.533699,49.419177
2016-10-09T05:32:00,246906,TÜV,8.50431,49.4978,600405,"Mensaam Schloss",8.4592,49.48657
2016-10-09T05:43:00,110801,"Am Bächenbuckel",8.76088,49.42319,603105,"Innerer Heckweg",8.563189,49.459265
2016-10-09T06:37:00,213306,Stifterstraße,8.435386,49.468503,259111,"Seckenheim OEG-Bf.",8.569489,49.462242
2016-10-09T06:56:00,302401,Husarenweg,8.50244,49.46935,236306,Habichtplatz,8.508281,49.513038
2016-10-09T08:06:00,255105,Pigagestraße,8.528146,49.414017,246202,Schloss,8.463276,49.484592
2016-10-09T10:49:00,664505,"Ebertpark Süd",8.414749,49.487158,249201,Isarweg,8.502564,49.449387
2016-10-09T13:47:00,261806,Föhrenweg,8.500046,49.53711,236105,"Käfertal Friedhof",8.519057,49.515403
2016-10-09T15:41:00,210201,"Friesenheim Mitte",8.419459,49.49785,245801,Rheinstraße,8.457725,49.490926
2016-10-09T16:00:00,170002,"Medizinische Klinik",8.666351,49.414627,348212,"Schriesheim Süd",8.6635,49.463879
2016-10-09T16:14:00,236501,"Hessische Straße",8.49619,49.51518,252201,Neuostheim,8.522575,49.477687
2016-10-09T17:11:00,248802,Freiheitsplatz,8.479705,49.459056,113601,Hans-Thoma-Platz,8.682977,49.427424
2016-10-09T18:09:00,127402,"Ortenauer Str.",8.68779,49.376861,122902,Jahnstr.,8.676683,49.413158
2016-10-09T19:58:00,245103,Paradeplatz,8.466639,49.487599,574202,"Dossenheim Nord",8.667083,49.453463
2016-10-09T20:00:00,134902,Schulbergweg,8.7636,49.41854,411312,"Freiburger Straße",8.630951,49.545106
2016-10-09T21:29:00,235805,"Bensheimer Straße",8.52728,49.51386,116902,"Kohlhof Fachklinik",8.735452,49.389549
2016-10-09T21:55:00,225505,Albert-Haueisen-Ring,8.383246,49.50365,61902,"Edingen Bahnhof",8.6154,49.44123
2016-10-09T22:09:00,239905,Bonadiesstraße,8.449964,49.504798,210208,"Friesenheim Mitte",8.42025,49.497574
2016-10-09T22:28:00,261201,Altrheinstraße,8.471178,49.525371,131702,Kreuzgrundweg,8.74746,49.431771
2016-10-09T23:10:00,239605,Jakobuskirche,8.454017,49.544013,246706,Teufelsbrücke,8.457072,49.49403
2016-10-10T00:04:00,121801,Ilse-Krall-Str.,8.67338,49.38626,556005,Pfalzplatz,8.469871,49.4647
2016-10-10T00:09:00,344401,Festplatz,8.811391,49.430536,114901,Rudolf-Diesel-Str.,8.677795,49.395987
2016-10-10T00:24:00,212605,Friedenspark,8.436991,49.484533,131401,Heidebuckelweg,8.754478,49.450535
2016-10-10T00:40:00,253906,Martinistraße,8.52677,49.443144,127605,"Rohrbach Markt",8.687139,49.38056
2016-10-10T01:09:00,217306,Kirchenstraße,8.398479,49.520014,243906,Max-Joseph-Straße,8.476297,49.4997
2016-10-10T01:15:00,113212,Biethsstr.,8.68251,49.43068,242906,Luisenp./Technoseum,8.496068,49.478662
2016-10-10T01:29:00,212906,Feuerwache,8.435598,49.464558,112002,"Am Götzenberg",8.701371,49.372022
2016-10-10T04:49:00,574201,"Dossenheim Nord",8.667348,49.452844,210206,"Friesenheim Mitte",8.419308,49.498291
2016-10-10T06:01:00,250305,Holzweg,8.56122,49.45181,207401,Gartenstraße,8.441346,49.488665
2016-10-10T07:14:00,411811,Händelstraße,8.655534,49.548637,206706,Bgm.-Krafft-Platz,8.450485,49.473261
2016-10-10T07:17:00,124801,"Ziegelh. Friedhof",8.76095,49.41959,214805,"Oggersheim Bahnhof",8.381436,49.492882
2016-10-10T07:58:00,238606,Luzenberg,8.475548,49.516669,212205,"Maudach Ortseingang",8.389793,49.455174
2016-10-10T08:08:00,125101,"Im Schaffner",8.64226,49.398293,255702,"Bürstadter Straße",8.452918,49.535534
2016-10-10T08:30:00,250702,"Neckarau West",8.481908,49.455093,209008,Marienkirche,8.4299,49.48507
2016-10-10T09:26:00,233706,Bastion,8.465994,49.517761,126401,Englerstr.,8.682337,49.36696
2016-10-10T11:19:00,250501,Diesterwegschule,8.469868,49.471566,126202,"Baden-Badener Straße",8.682425,49.376722
2016-10-10T11:26:00,425602,"Schwetzinger Terrass",8.67164,49.39946,407712,Hohensachsen,8.655305,49.520754
2016-10-10T11:32:00,298861,Dreikreuzweg,8.80256,49.38412,555605,"Sonderburger Straße",8.481173,49.536203
2016-10-10T12:06:00,119603,"Altes Hallenbad",8.68851,49.40842,114901,Rudolf-Diesel-Str.,8.677795,49.395987
2016-10-10T13:11:00,281401,"Maxdorf Süd",8.289276,49.476377,260505,"Straßenheimer Weg",8.555981,49.511512
2016-10-10T14:13:00,118601,"Rohrbacher Grenzweg",8.696955,49.396195,600506,Akademiestraße,8.45682,49.492495
2016-10-10T14:37:00,77805,"FT Feierabendhaus",8.3588,49.53737,555306,Schönau,8.474775,49.546858
2016-10-10T16:11:00,554901,MVV-Hochhaus,8.465591,49.49395,217305,Kirchenstraße,8.398578,49.519768
2016-10-10T17:59:00,242305,Hombuschstraße,8.460403,49.516022,204006,Schopenhauerstraße,8.426761,49.496447
2016-10-10T17:59:00,261503,"Waldhof Bahnhof",8.481745,49.524677,680405,Nelkestraße,8.375228,49.456921
2016-10-10T19:49:00,255701,"Bürstadter Straße",8.453306,49.535219,687706,"Strandbad Blies",8.415165,49.475468
2016-10-10T21:00:00,302620,Gerd-Dehof-Platz,8.508166,49.465608,240305,Dudenstraße,8.500978,49.500756
2016-10-10T22:18:00,126012,Brückenstr.,8.69212,49.41573,212206,"Maudach Ortseingang",8.38927,49.4551
2016-10-10T22:41:00,210801,Südwest-Stadion,8.439612,49.472155,259606,Schwabenstraße,8.56757,49.46263
2016-10-10T22:47:00,243506,Lortzingstraße,8.467726,49.497328,233335,Lilli-Gräber-Halle,8.56979,49.44248
2016-10-10T22:50:00,679401,Montpellierbrücke,8.678343,49.400546,127702,Saarstr.,8.686615,49.386063
2016-10-10T23:07:00,234505,Niederweid,8.456503,49.513238,251806,Hans-Thoma-Straße,8.524129,49.474812
2016-10-10T23:50:00,236806,Kometenweg,8.51158,49.52327,202906,Ebertpark/Fichtestr.,8.421155,49.491555
2016-10-11T00:02:00,555701,Blücherstraße,8.527329,49.487379,263007,Waldstraße,8.48856,49.52906
2016-10-11T00:51:00,554805,"Alte Feuerwache",8.473743,49.496093,204305,Abteistraße,8.40713,49.46826
2016-10-11T01:36:00,302502,Ulanenweg,8.50676,49.467381,675505,"Universität West",8.457501,49.487646
2016-10-11T03:33:00,127402,"Ortenauer Str.",8.68779,49.376861,264511,"Wallstadt West",8.543849,49.500533
2016-10-11T03:50:00,554305,Theresienkrankenhaus,8.480683,49.490029,302806,"Technoseum Süd",8.493521,49.476018
2016-10-11T04:04:00,169312,"HD Fachhochschule",8.649425,49.415157,213761,Knappenwegstraße,8.41845,49.46369
2016-10-11T04:10:00,261305,"Am Herrschaftswald",8.507749,49.533825,253705,Lüderitzstraße,8.535102,49.419188
2016-10-11T04:37:00,253005,Hallenweg,8.535053,49.448886,243806,Marktplatz,8.467956,49.489699
2016-10-11T05:13:00,243706,Zielstraße,8.500204,49.505486,131102,Haarlaß,8.728996,49.420131
2016-10-11T05:38:00,752106,"Rheinallee Süd",8.45561,49.47463,232005,Neckarplatt,8.512492,49.489085
2016-10-11T06:14:00,301205,Apostelkirche,8.43264,49.487414,664605,"LU Völklinger Straße",8.40419,49.48867
2016-10-11T09:11:00,128801,Carl-Bosch-Museum,8.72918,49.41571,615906,Holländerstraße,8.509025,49.428139
2016-10-11T09:19:00,330606,Floßwörth,8.499606,49.460003,134101,"Rombachweg Süd",8.73838,49.41344
2016-10-11T10:24:00,219405,"Dürkheimer Straße",8.368626,49.492348,209302,Pfalzbau,8.44544,49.480024
2016-10-11T12:08:00,239506,"Am Friedrichsplatz",8.479037,49.482531,114404,Betriebshof,8.674832,49.407513
2016-10-11T12:25:00,257406,"Haderslebener Straße",8.481033,49.54229,216206,"Speyerer Straße",8.36714,49.482089
2016-10-11T12:37:00,133401,Sandwingert,8.64437,49.41897,554505,"Mannheimer Straße",8.51283,49.508398
2016-10-11T13:58:00,425601,"Schwetzinger Terrass",8.67173,49.39933,243105,Landwehrstraße,8.49026,49.50573
2016-10-11T14:04:00,410511,Blumenstraße,8.637617,49.544581,231202,"Am Aubuckel",8.51933,49.488511
2016-10-11T14:50:00,118101,Peterskirche,8.705417,49.408916,204005,Schopenhauerstraße,8.426725,49.496497
2016-10-11T15:32:00,207306,Feierabendhaus,8.427946,49.492834,130203,"Wieblingen Mitte",8.645783,49.423532
2016-10-11T15:40:00,616005,"Birkenauer Straße",8.530779,49.515469,276305,Eisenlohrplatz,8.49393,49.50092
2016-10-11T15:46:00,216905,Dammbruchstraße,8.401635,49.523505,69702,"Eppelheim Rathaus",8.629096,49.401611
2016-10-11T16:01:00,120901,Harbigweg,8.669363,49.39201,113212,Biethsstr.,8.68251,49.43068
2016-10-11T16:58:00,234805,Rheinrottstraße,8.454407,49.511661,132302,Neckarschule,8.756836,49.419162
2016-10-11T18:25:00,574202,"Dossenheim Nord",8.667083,49.453463,217907,Ostringplatz,8.389395,49.533777
2016-10-11T19:18:00,211906,Krappstraße,8.372928,49.455056,235708,Lanzvilla,8.486977,49.485062
2016-10-11T19:37:00,429602,Unterdorf,8.772343,49.466591,237406,Sonnenschein,8.50514,49.521834
2016-10-11T19:58:00,254206,Münchwälderstraße,8.535032,49.42172,302612,Gerd-Dehof-Platz,8.510041,49.465625
2016-10-11T20:58:00,114606,Bismarckplatz,8.6933,49.40967,236905,"Neues Leben",8.502937,49.51926
2016-10-11T23:47:00,204208,Sternstraße,8.415621,49.495358,249505,Mallaustraße,8.509996,49.4542
2016-10-12T00:13:00,474305,"Oppau Friedhof",8.408725,49.5219,414614,"Weinheim Alt. OEG-Bf",8.664895,49.548651
2016-10-12T01:55:00,231806,"Feudenheim Kreuz",8.536764,49.486011,210401,Schützenstraße,8.448925,49.477443
2016-10-12T03:20:00,253405,Karl-Schwaner-Straße,8.53373,49.419124,212606,Friedenspark,8.437397,49.484419
2016-10-12T04:10:00,239806,Bibienastraße,8.487982,49.494577,236006,Thomashaus,8.506308,49.466557
2016-10-12T04:37:00,220105,"Am Hüttengraben",8.35398,49.481371,249906,Hochschule,8.48386,49.469421
2016-10-12T04:57:00,123202,"Botanischer Garten",8.66893,49.41417,69602,"Kirchheimer Str.",8.62656,49.39926
2016-10-12T05:10:00,250005,Windeckstraße,8.468614,49.474535,61906,"Edingen Bahnhof",8.615289,49.441853
2016-10-12T05:41:00,214102,Schillerschule,8.427606,49.459735,245805,Rheinstraße,8.459621,49.491228
2016-10-12T06:06:00,126302,Eichendorffplatz,8.690462,49.383637,256306,Krähenflügel,8.457486,49.551417
2016-10-12T08:03:00,272902,Jugendverkehrsschule,8.49349,49.51179,217105,"Oppau Gemeindehaus",8.404467,49.521441
2016-10-12T09:30:00,252501,"Rheinau Bahnhof",8.536229,49.424327,114501,Bierhelderhof,8.705116,49.390146
2016-10-12T09:44:00,128302,Jägerhaus,8.747268,49.415349,257406,"Haderslebener Straße",8.481033,49.54229
2016-10-12T10:30:00,211905,Krappstraße,8.372542,49.455296,118502,Rheinstr.,8.690349,49.389996
2016-10-12T10:43:00,116902,"Kohlhof Fachklinik",8.735452,49.389549,110701,Hirtenbrunnenweg,8.7564,49.42264
2016-10-12T10:53:00,212005,Maudach,8.367971,49.45618,126104,Stotz,8.643798,49.402482
2016-10-12T11:46:00,202105,Anglerstraße,8.382927,49.53232,123801,"Pädagog. Hochschule",8.66996,49.41945
2016-10-12T13:45:00,121101,"Königsberger Str.",8.666023,49.384281,555805,"Antwerpener Straße",8.505135,49.417675
2016-10-12T13:50:00,555401,"Schönau Siedlung",8.47347,49.54004,113102,Otto-Hahn-Str.,8.70476,49.36602
2016-10-12T14:38:00,234505,Niederweid,8.456503,49.513238,203306,Lagewiesenstraße,8.411248,49.493664
2016-10-12T14:49:00,429701,Wilhelmshöhe,8.758263,49.468174,207402,Gartenstraße,8.440812,49.489131
2016-10-12T14:57:00,664805,Erich-Kästner-Straße,8.368547,49.485738,241601,Handelshafen,8.453985,49.491806
2016-10-12T15:13:00,242105,Herzogenriedstraße,8.471555,49.508458,255302,Waldseestraße,8.5288,49.431534
2016-10-12T16:45:00,113211,Biethsstr.,8.68252,49.42987,202406,"Edigheim Kirche",8.392655,49.52971
2016-10-12T18:07:00,254302,"Neuhofer Straße",8.525654,49.435512,245306,Planetarium,8.489762,49.476534
2016-10-12T18:31:00,687706,"Strandbad Blies",8.415165,49.475468,188202,Johannes-Reidel-Str.,8.6892,49.35381
2016-10-12T19:21:00,641001,Bahofweg,8.701038,49.431522,216906,Dammbruchstraße,8.401369,49.523625
2016-10-12T23:13:00,261606,Roche,8.468916,49.528704,676405,"Käfertaler Straße",8.501392,49.502155
2016-10-12T23:43:00,13401,"Bad Dürkheim Ost",8.185246,49.463453,258205,"Memeler Straße",8.481055,49.544945
2016-10-13T01:07:00,118202,Posseltslust,8.733453,49.384651,206005,BASF,8.43091,49.49473
2016-10-13T02:27:00,252101,"Duale Hochschule",8.534086,49.475326,603606,"Pfingstberg Sportan.",8.524526,49.449436
2016-10-13T03:10:00,209005,Marienkirche,8.431398,49.485371,209001,Marienkirche,8.430869,49.485254
2016-10-13T03:53:00,131601,Wielandtstr.,8.681559,49.417351,248108,"Neckarau Bahnhof",8.495188,49.455259
2016-10-13T05:10:00,251105,Lochgärten,8.499688,49.470157,133304,Heiligenbergschule,8.679328,49.423398
2016-10-13T08:34:00,217907,Ostringplatz,8.389395,49.533777,112902,Jaspersstr.,8.703439,49.361354
2016-10-13T09:33:00,145501,Steigerweg,8.69473,49.39694,664902,"Westlich B9",8.35364,49.48335
2016-10-13T10:48:00,233605,"Friedrichsf. Kreuz",8.57656,49.446784,670905,"Neckarh. Friedhof",8.598075,49.460948
2016-10-13T11:32:00,204862,Marienkrankenhaus,8.409559,49.459521,235506,"Äußere Wingertstraße",8.51188,49.51615
2016-10-13T12:24:00,204102,Schwalbenweg,8.417804,49.493853,555520,Eugen-Neter-Schule,8.492711,49.56596
2016-10-13T13:49:00,300301,Stadttor,8.80116,49.39157,217909,Ostringplatz,8.389399,49.532756
2016-10-13T14:37:00,209006,Marienkirche,8.431387,49.485506,238608,Luzenberg,8.475291,49.516266
2016-10-13T15:37:00,242601,Konrad-Adenauer-Br.,8.458716,49.482673,281402,"Maxdorf Süd",8.289268,49.476561
2016-10-13T15:54:00,664905,"Westlich B9",8.35317,49.483778,238603,Luzenberg,8.475233,49.515999
2016-10-13T16:13:00,243311,Lessingstraße,8.485588,49.489203,253105,"Essener Straße",8.508045,49.421177
2016-10-13T18:51:00,126703,"Freiburger Str.",8.686472,49.373877,130002,Finanzamt,8.642472,49.42222
2016-10-13T19:06:00,554808,"Alte Feuerwache",8.472299,49.495806,247612,Weberstraße,8.485735,49.476492
2016-10-13T19:38:00,242305,Hombuschstraße,8.460403,49.516022,256506,"Sandhofer Weg",8.447984,49.558647
2016-10-13T19:39:00,132202,Neckarhelle,8.749148,49.417354,254706,"Rohrhofer Straße",8.525928,49.420867
2016-10-13T21:27:00,730306,Kolpingstraße,8.482791,49.486636,243312,Lessingstraße,8.485415,49.489241
2016-10-13T21:39:00,281002,Maxdorf,8.293832,49.480157,217602,"Oppau Süd",8.40783,49.51245
2016-10-13T21:48:00,244601,"Neckarstadt West",8.459935,49.50289,681006,Heuweg,8.409472,49.473308
2016-10-13T23:45:00,118102,Peterskirche,8.705365,49.409044,117702,Nansenstr.,8.686187,49.389952
2016-10-14T01:09:00,11610,"Bad Dürkheim Bahnhof",8.170652,49.461657,257105,"Rastenburger Straße",8.468441,49.550576
2016-10-14T01:20:00,116701,"MPI Kernphysik",8.707654,49.388892,130221,"Wieblingen Mitte",8.645849,49.423843
2016-10-14T01:27:00,256705,Sandhofen,8.449787,49.541715,113212,Biethsstr.,8.68251,49.43068
2016-10-14T02:39:00,238609,Luzenberg,8.474993,49.51602,131902,Löwen,8.75371,49.444105
2016-10-14T04:00:00,680606,"Am Sandloch",8.40867,49.44805,126104,Stotz,8.643798,49.402482
2016-10-14T04:06:00,389405,"SAP Arena S-Bahnhof",8.51642,49.460299,124102,"Sportzentrum Nord",8.660642,49.426469
2016-10-14T04:28:00,129501,Hermann-Treiber-Str.,8.651891,49.419588,237602,"Käfertal Süd",8.505361,49.506904
2016-10-14T06:09:00,218705,"Pfingstweide Zentrum",8.3888,49.54041,614401,Universitäts-Campus,8.670507,49.413369
2016-10-14T06:52:00,558805,Karl-Feuerstein-Str.,8.487207,49.522247,186305,Lagerhausstraße,8.44942,49.46755
2016-10-14T07:04:00,554206,Kunsthalle,8.472809,49.482326,107901,"Im Hofert",8.768975,49.412051
2016-10-14T10:36:00,242305,Hombuschstraße,8.460403,49.516022,614401,Universitäts-Campus,8.670507,49.413369
2016-10-14T11:59:00,248302,"Dannstadter Straße",8.509332,49.446039,127607,"Rohrbach Markt",8.687865,49.380376
2016-10-14T12:00:00,212905,Feuerwache,8.435966,49.464603,114504,Bierhelderhof,8.70504,49.39029
2016-10-14T12:11:00,614401,Universitäts-Campus,8.670507,49.413369,256912,Collini-Center,8.478036,49.491429
2016-10-14T12:14:00,210208,"Friesenheim Mitte",8.42025,49.497574,243101,Landwehrstraße,8.4897,49.50547
2016-10-14T12:34:00,255105,Pigagestraße,8.528146,49.414017,214202,Wollstraße,8.39706,49.48583
2016-10-14T12:52:00,119501,Sternwarte,8.72739,49.40078,212505,"Am Schwanen",8.429125,49.46292
2016-10-14T12:55:00,236501,"Hessische Straße",8.49619,49.51518,114001,"Alter Kohlhof",8.731112,49.388275
2016-10-14T13:38:00,555302,Schönau,8.47426,49.54725,220105,"Am Hüttengraben",8.35398,49.481371
2016-10-14T15:17:00,123312,Kußmaulstr.,8.69055,49.419003,257606,Kerschensteinersch.,8.479456,49.546969
2016-10-14T15:29:00,554005,Franz-Sigel-Straße,8.477025,49.462982,259312,"Pforzheimer Straße",8.55056,49.47329
2016-10-14T15:40:00,260902,"Vogelstang West",8.532063,49.506541,344302,Steinachbrücke,8.801389,49.467193
2016-10-14T16:06:00,256607,Scharhof,8.447739,49.560017,239705,Bgm.-Fuchs-Straße,8.46385,49.501156
2016-10-14T16:43:00,127303,Markscheide,8.690511,49.386113,264312,"Wallstadt Ost",8.553981,49.497288
2016-10-14T16:50:00,114601,Bismarckplatz,8.693199,49.409861,110902,Moselbrunnenweg,8.760494,49.422134
2016-10-14T16:52:00,556311,"Heddesheim Bahnhof",8.594176,49.504812,280905,Landzungenstraße,8.454255,49.49532
2016-10-14T17:06:00,558805,Karl-Feuerstein-Str.,8.487207,49.522247,210206,"Friesenheim Mitte",8.419308,49.498291
2016-10-14T17:21:00,554305,Theresienkrankenhaus,8.480683,49.490029,131503,"Kleingemünder Str.",8.76291,49.41757
2016-10-14T18:52:00,124101,"Sportzentrum Nord",8.660608,49.426444,258106,M.-Winterhalter-Ring,8.481388,49.551635
2016-10-14T19:53:00,244901,"Neuer Meßplatz",8.469981,49.504885,231305,Andreas-Hofer-Straße,8.525426,49.490511
2016-10-14T19:56:00,233405,"Friedr. Südbahnhof",8.57257,49.438666,237305,Käfertalschule,8.51488,49.51456
2016-10-14T22:29:00,614501,Kopfklinik,8.66723,49.41905,242601,Konrad-Adenauer-Br.,8.458716,49.482673
2016-10-14T23:41:00,272901,Jugendverkehrsschule,8.49394,49.51138,220301,Ruchheim,8.32755,49.478501
2016-10-15T00:39:00,118011,Ochsenkopf,8.652087,49.409559,247111,Universität,8.465374,49.482671
2016-10-15T01:31:00,259402,"Seckenheim Rathaus",8.56331,49.46686,664706,"Burbacher Straße",8.394955,49.489951
2016-10-15T02:06:00,249105,"Im Morchhof",8.505313,49.455766,262405,"Langer Schlag",8.509641,49.53113
2016-10-15T02:27:00,429502,"Schriesheimer Hof",8.754297,49.470321,124301,Zoo,8.663488,49.415242
2016-10-15T03:20:00,114404,Betriebshof,8.674832,49.407513,554506,"Mannheimer Straße",8.512952,49.50843
2016-10-15T03:23:00,235505,"Äußere Wingertstraße",8.51149,49.51646,344201,Pflug,8.804379,49.465428
2016-10-15T04:11:00,119603,"Altes Hallenbad",8.68851,49.40842,61901,"Edingen Bahnhof",8.614651,49.441523
2016-10-15T04:31:00,255606,"Blumenauer Weg",8.448225,49.555514,116901,"Kohlhof Fachklinik",8.735155,49.38931
2016-10-15T04:55:00,263007,Waldstraße,8.48856,49.52906,252905,Frobeniusstraße,8.538195,49.416884
2016-10-15T05:33:00,298861,Dreikreuzweg,8.80256,49.38412,235505,"Äußere Wingertstraße",8.51149,49.51646
2016-10-15T06:20:00,243312,Lessingstraße,8.485415,49.489241,232402,Talstraße,8.525015,49.495341
2016-10-15T06:23:00,113512,Kapellenweg,8.68637,49.42505,117602,Molkenkur,8.71507,49.40702
2016-10-15T07:18:00,133302,Heiligenbergschule,8.679706,49.42364,215105,Pettenkoferstraße,8.422462,49.486025
2016-10-15T08:08:00,245302,Planetarium,8.49043,49.47667,211105,Wittelsbachplatz,8.44369,49.475599
2016-10-15T08:25:00,128706,"S-Bf Schlierb./Zgh.",8.762564,49.415372,246612,Tattersall,8.473452,49.481597
2016-10-15T09:04:00,216906,Dammbruchstraße,8.401369,49.523625,251512,Harrlach,8.506792,49.478247
2016-10-15T09:16:00,248102,"Neckarau Bahnhof",8.494131,49.455496,217908,Ostringplatz,8.390892,49.532837
2016-10-15T10:42:00,131102,Haarlaß,8.728996,49.420131,260902,"Vogelstang West",8.532063,49.506541
2016-10-15T13:12:00,209005,Marienkirche,8.431398,49.485371,244601,"Neckarstadt West",8.459935,49.50289
2016-10-15T13:20:00,569806,"Dortmunder Straße",8.515353,49.418782,128703,"S-Bf Schlierb./Zgh.",8.761798,49.415282
2016-10-15T13:54:00,680505,Riedstraße,8.378043,49.455501,215006,Buschwegbrücke,8.377819,49.495093
2016-10-15T14:06:00,429702,Wilhelmshöhe,8.75819,49.468173,116803,Seegarten,8.69221,49.40716
2016-10-15T14:35:00,261505,"Waldhof Bahnhof",8.481972,49.525152,258402,Schönauschule,8.474136,49.544235
2016-10-15T15:23:00,600405,"Mensaam Schloss",8.4592,49.48657,247002,Ulmenweg,8.49361,49.5077
2016-10-15T15:23:00,69701,"Eppelheim Rathaus",8.62883,49.401666,256306,Krähenflügel,8.457486,49.551417
2016-10-15T15:23:00,128705,"S-Bf Schlierb./Zgh.",8.76131,49.41553,133202,Augustinum,8.703578,49.362937
2016-10-15T15:26:00,231905,Liebfrauenstraße,8.523449,49.488439,251805,Hans-Thoma-Straße,8.524343,49.475221
2016-10-15T16:12:00,214405,Damaschkestraße,8.404414,49.471814,285906,Parkinsel,8.451795,49.466177
2016-10-15T17:12:00,136402,"Peterstaler Str.",8.749092,49.434626,263805,Wallstadtschule,8.548777,49.497607
2016-10-15T17:21:00,132502,Rainweg,8.746769,49.430216,249105,"Im Morchhof",8.505313,49.455766
2016-10-15T17:55:00,408412,"Lützelsachsen Bergs.",8.657345,49.527175,133304,Heiligenbergschule,8.679328,49.423398
2016-10-15T18:22:00,555401,"Schönau Siedlung",8.47347,49.54004,203002,Kreuzstraße,8.41355,49.497187
2016-10-15T18:24:00,261806,Föhrenweg,8.500046,49.53711,113902,"Alte Brücke",8.710681,49.41361
2016-10-15T18:30:00,604106,"MA Rathaus/REM",8.463582,49.489551,344501,Lindenbach,8.806615,49.420508
2016-10-15T19:26:00,262906,Waldpforte,8.496597,49.537902,217909,Ostringplatz,8.389399,49.532756
2016-10-15T19:28:00,11601,"Bad Dürkheim Bahnhof",8.170481,49.461467,264602,Stollenwörth,8.471935,49.450599
2016-10-15T21:12:00,121601,Odenwaldstr.,8.669159,49.379042,344701,Marktplatz,8.809844,49.437077
2016-10-15T21:18:00,124902,"Im Dornbusch",8.649173,49.395764,126701,"Freiburger Str.",8.688023,49.373385
2016-10-15T21:37:00,262002,Freilichtbühne,8.49327,49.53392,237305,Käfertalschule,8.51488,49.51456
2016-10-15T21:39:00,283306,"Saarburger Ring",8.57549,49.44573,261506,"Waldhof Bahnhof",8.481776,49.524775
2016-10-15T22:03:00,198102,"Pleikartsförster Str",8.662716,49.383144,116002,"HD Hauptbahnhof",8.675296,49.405114
2016-10-15T22:07:00,108601,"Bärenbach Nord",8.772751,49.415084,110201,"Villa Schmeil",8.73227,49.4159
2016-10-15T22:10:00,127605,"Rohrbach Markt",8.687139,49.38056,250705,"Neckarau West",8.481988,49.455165
2016-10-15T22:29:00,231601,Hölderlinstraße,8.52991,49.496471,127606,"Rohrbach Markt",8.687336,49.380516
2016-10-15T22:37:00,204105,Schwalbenweg,8.41799,49.493927,211102,Wittelsbachplatz,8.444142,49.475804
2016-10-15T23:29:00,121903,"Kirchheim Rathaus",8.664664,49.377103,259106,"Seckenheim OEG-Bf.",8.569505,49.462339
2016-10-15T23:43:00,204001,Schopenhauerstraße,8.426915,49.496743,249606,"Neckarau Marktplatz",8.491798,49.453203
2016-10-16T01:21:00,641001,Bahofweg,8.701038,49.431522,108801,"Im Anger",8.767063,49.411621
2016-10-16T04:45:00,130101,Maltesergasse,8.645727,49.428919,604102,"MA Rathaus/REM",8.462325,49.489253
2016-10-16T11:19:00,237406,Sonnenschein,8.50514,49.521834,110802,"Am Bächenbuckel",8.76063,49.42312
2016-10-16T11:25:00,258712,"Deutscher Hof",8.55702,49.47087,231606,Hölderlinstraße,8.530452,49.496422
2016-10-16T11:48:00,237905,"Zäher Wille",8.494029,49.521719,123202,"Botanischer Garten",8.66893,49.41417
2016-10-16T11:51:00,202105,Anglerstraße,8.382927,49.53232,247508,Wasserturm,8.473874,49.483333
2016-10-16T12:12:00,255705,"Bürstadter Straße",8.453338,49.535491,267006,Otto-Thiele-Platz,8.400854,49.467749
2016-10-16T12:56:00,249402,Lettestraße,8.486681,49.465443,570002,Oggersheim,8.364314,49.488298
2016-10-16T14:26:00,233906,Einsteinstraße,8.459836,49.519302,127701,Saarstr.,8.686426,49.385744
2016-10-16T15:38:00,262206,"Glücksburger Weg",8.486268,49.536407,602905,O.-Bauder-Sportanl.,8.550876,49.466228
2016-10-16T18:16:00,131802,"Langer Kirschbaum",8.751243,49.459075,206806,Bgm.-Kutterer-Straße,8.442269,49.478257
2016-10-16T19:20:00,602905,O.-Bauder-Sportanl.,8.550876,49.466228,236005,Thomashaus,8.506724,49.466404
2016-10-16T20:33:00,248006,August-Bebel-Straße,8.480063,49.466822,244412,Nationaltheater,8.478459,49.487705
2016-10-16T22:19:00,215205,"Oggersheim Friedhof",8.367368,49.497168,134001,"Villa Bosch",8.73452,49.41546
2016-10-16T22:41:00,263512,"Wallstadt Bahnhof",8.549386,49.498484,118401,Rathaus-Bergbahn,8.71191,49.41143
2016-10-16T23:03:00,209606,"LU Rathaus",8.441094,49.484142,236405,Kutzerweiher,8.490777,49.483026
2016-10-16T23:15:00,640901,Turnerbrunnen,8.705377,49.431789,588302,"Burg Waldeck",8.785837,49.487931
2016-10-16T23:56:00,202406,"Edigheim Kirche",8.392655,49.52971,265005,Waldfriedhof,8.49497,49.53582
2016-10-17T00:24:00,344401,Festplatz,8.811391,49.430536,712505,Großparthweiher,8.383506,49.498502
2016-10-17T01:17:00,128402,"S-Bf Orthopädie",8.775053,49.410496,112601,Louise-Ebert-Zentrum,8.703735,49.373004
2016-10-17T01:27:00,254706,"Rohrhofer Straße",8.525928,49.420867,236105,"Käfertal Friedhof",8.519057,49.515403
2016-10-17T02:44:00,242201,Hochuferstraße,8.48772,49.50274,122902,Jahnstr.,8.676683,49.413158
2016-10-17T03:22:00,132702,"Stift Neuburg",8.735142,49.419329,212706,"Mundenheim Bahnhof",8.421978,49.461796
2016-10-17T03:26:00,249402,Lettestraße,8.486681,49.465443,679501,Messplatz,8.675377,49.390931
2016-10-17T03:47:00,209806,"Bayreuther Straße",8.419753,49.477777,272901,Jugendverkehrsschule,8.49394,49.51138
2016-10-17T04:08:00,215005,Buschwegbrücke,8.377869,49.495157,248302,"Dannstadter Straße",8.509332,49.446039
2016-10-17T05:12:00,234806,Rheinrottstraße,8.454613,49.511875,261706,Eschenhof,8.504585,49.535461
2016-10-17T05:23:00,247002,Ulmenweg,8.49361,49.5077,206602,"Berliner Platz",8.45065,49.48049
2016-10-17T06:04:00,285935,Parkinsel,8.45176,49.46618,253311,Holbeinstraße,8.511843,49.481483
2016-10-17T06:18:00,202805,Wolfsgrube,8.388851,49.524991,242305,Hombuschstraße,8.460403,49.516022
2016-10-17T06:22:00,251806,Hans-Thoma-Straße,8.524129,49.474812,247612,Weberstraße,8.485735,49.476492
2016-10-17T07:19:00,237705,Gebweilerstraße,8.57151,49.43788,554505,"Mannheimer Straße",8.51283,49.508398
2016-10-17T07:27:00,615905,Holländerstraße,8.508996,49.428201,244606,"Neckarstadt West",8.460684,49.503656
2016-10-17T09:27:00,262906,Waldpforte,8.496597,49.537902,253406,Karl-Schwaner-Straße,8.533699,49.419177
2016-10-17T09:54:00,204205,Sternstraße,8.414716,49.495684,515206,Paul-Münch-Straße,8.3276,49.475837
2016-10-17T10:55:00,120102,Alfred-Jost-Str.,8.659146,49.378834,258105,M.-Winterhalter-Ring,8.481247,49.551121
2016-10-17T11:45:00,262702,Papyrus,8.459549,49.533616,122701,Olympiastützpunkt,8.658391,49.422452
2016-10-17T11:51:00,664906,"Westlich B9",8.353726,49.482968,121601,Odenwaldstr.,8.669159,49.379042
2016-10-17T12:17:00,212706,"Mundenheim Bahnhof",8.421978,49.461796,255206,"Rheinau Süd",8.540178,49.41484
2016-10-17T12:38:00,242505,Jungbuschbrücke,8.461591,49.499347,205205,Volkshaus,8.409767,49.462927
2016-10-17T14:07:00,244306,Mühldorferstraße,8.488087,49.476958,245102,Paradeplatz,8.465612,49.487078
2016-10-17T14:08:00,210406,Schützenstraße,8.447742,49.47768,264305,"Wallstadt Ost",8.554516,49.497538
2016-10-17T14:27:00,144901,"Schönauer Str.",8.76545,49.41755,212005,Maudach,8.367971,49.45618
2016-10-17T15:56:00,243905,Max-Joseph-Straße,8.476237,49.499681,123001,DJK-Sportplatz,8.656768,49.425327
2016-10-17T16:02:00,132902,Stiftsmühle,8.743805,49.417342,62906,"Neu-Ed. Gewerbegeb.",8.592638,49.454363
2016-10-17T16:53:00,246906,TÜV,8.50431,49.4978,263007,Waldstraße,8.48856,49.52906
2016-10-17T17:38:00,263406,Kiesäcker,8.536477,49.498463,207905,"LU Klinikum",8.423174,49.490182
2016-10-17T21:21:00,554301,Theresienkrankenhaus,8.480702,49.489768,247505,Wasserturm,8.474874,49.484997
2016-10-17T21:22:00,249606,"Neckarau Marktplatz",8.491798,49.453203,125401,Kranichweg,8.641465,49.402066
2016-10-17T21:29:00,248302,"Dannstadter Straße",8.509332,49.446039,261905,"Wetzlarer Winkel",8.489612,49.522523
2016-10-17T22:32:00,116661,"S-Bf Altstadt",8.720174,49.41509,241602,Handelshafen,8.453653,49.491848
2016-10-17T22:37:00,121601,Odenwaldstr.,8.669159,49.379042,554412,Universitätsklinikum,8.48448,49.49388
2016-10-18T03:39:00,647201,Heiligenberg,8.70587,49.42213,570002,Oggersheim,8.364314,49.488298
2016-10-18T04:18:00,680606,"Am Sandloch",8.40867,49.44805,62901,"Neu-Ed. Gewerbegeb.",8.591368,49.454268
2016-10-18T04:35:00,250106,Rheingoldhalle,8.469663,49.450061,116002,"HD Hauptbahnhof",8.675296,49.405114
2016-10-18T05:21:00,263805,Wallstadtschule,8.548777,49.497607,243102,Landwehrstraße,8.49032,49.50576
2016-10-18T05:38:00,221964,"BASF Süd",8.435993,49.493145,209705,Rhein-Galerie,8.447682,49.484802
2016-10-18T06:49:00,204705,"Leininger Straße",8.402993,49.458771,260911,"Vogelstang West",8.53113,49.50656
2016-10-18T06:52:00,124801,"Ziegelh. Friedhof",8.76095,49.41959,249201,Isarweg,8.502564,49.449387
2016-10-18T07:17:00,413612,Stahlbad,8.649003,49.544926,202906,Ebertpark/Fichtestr.,8.421155,49.491555
2016-10-18T07:22:00,204002,Schopenhauerstraße,8.426857,49.497025,251802,Hans-Thoma-Straße,8.524139,49.474742
2016-10-18T07:22:00,283005,"Feuerwache Nord",8.50861,49.51745,246906,TÜV,8.50431,49.4978
2016-10-18T07:28:00,120501,G.-Mendel-Realschule,8.666587,49.386868,254404,"Rheinau Karlsplatz",8.522641,49.438466
2016-10-18T07:35:00,254404,"Rheinau Karlsplatz",8.522641,49.438466,239906,Bonadiesstraße,8.45008,49.50467
2016-10-18T09:03:00,115102,Czernybrücke,8.671285,49.406868,122804,Bunsengymnasium,8.676752,49.417035
2016-10-18T11:36:00,207306,Feierabendhaus,8.427946,49.492834,129801,E.-v.-Thadden-Platz,8.649124,49.42409
2016-10-18T12:02:00,574202,"Dossenheim Nord",8.667083,49.453463,203101,"Friesenheim Ost",8.421656,49.501428
2016-10-18T12:53:00,213305,Stifterstraße,8.435263,49.468673,110602,Schleifengrundweg,8.757946,49.423915
2016-10-18T12:57:00,144602,"Hilsenhain Dell",8.777158,49.513695,264005,"Wallstadt Wasserturm",8.544324,49.499258
2016-10-18T14:04:00,203101,"Friesenheim Ost",8.421656,49.501428,223105,Pasadenaallee,8.436063,49.481441
2016-10-18T14:41:00,69602,"Kirchheimer Str.",8.62656,49.39926,241905,Hauptgüterbahnhof,8.447051,49.50076
2016-10-18T15:12:00,554506,"Mannheimer Straße",8.512952,49.50843,264305,"Wallstadt Ost",8.554516,49.497538
2016-10-18T15:40:00,123801,"Pädagog. Hochschule",8.66996,49.41945,260601,Vogelstang,8.543754,49.511757
2016-10-18T16:25:00,112701,"Emmertsgrund Endst.",8.703837,49.359335,125901,Steinhofweg,8.646241,49.394187
2016-10-18T16:35:00,240401,Exerzierplatz,8.497362,49.503161,249705,Markuskirche,8.47539,49.46474
2016-10-18T19:03:00,236306,Habichtplatz,8.508281,49.513038,203508,Rheinfeldstraße,8.421765,49.49976
2016-10-18T19:51:00,203305,Lagewiesenstraße,8.410351,49.493615,127201,Kolbenzeil,8.68157,49.373791
2016-10-18T19:51:00,123201,"Botanischer Garten",8.66858,49.41419,207505,Goerdelerplatz,8.431068,49.490161
2016-10-18T20:09:00,247202,Untermühlaustraße,8.471444,49.511314,212306,"Maudacher Bruch",8.39802,49.456676
2016-10-18T21:07:00,69501,Jakobsgasse,8.632746,49.401021,124302,Zoo,8.663157,49.415327
2016-10-18T22:45:00,211806,"Kärntner Straße",8.403975,49.457198,113612,Hans-Thoma-Platz,8.6833,49.42799
2016-10-18T23:15:00,136401,"Peterstaler Str.",8.749271,49.43475,132002,"Mittlerer Rainweg",8.746591,49.426134
2016-10-18T23:53:00,212405,Achtmorgenstraße,8.419248,49.466134,243102,Landwehrstraße,8.49032,49.50576
2016-10-19T00:24:00,238610,Luzenberg,8.47587,49.51646,384111,"Viernh. Kapellenberg",8.575185,49.529797
2016-10-19T00:31:00,299902,Melacpass,8.78147,49.392871,225506,Albert-Haueisen-Ring,8.383223,49.503687
2016-10-19T02:04:00,130412,"Wiebl. Taubenfeld",8.642799,49.428327,608006,"Am Salzkai",8.46081,49.49641
2016-10-19T03:17:00,263402,Kiesäcker,8.536587,49.498917,248505,"Sandhofen Rathaus",8.443168,49.545011
2016-10-19T05:26:00,77105,"FT Hauptbahnhof",8.35027,49.53638,205006,Pommernstraße,8.405563,49.454766
2016-10-19T05:40:00,114407,Betriebshof,8.674827,49.407622,243212,"Lange Rötterstraße",8.48691,49.49617
2016-10-19T06:25:00,890305,"Gorxheimer Straße",8.543208,49.517569,242106,Herzogenriedstraße,8.471474,49.508423
2016-10-19T07:36:00,202805,Wolfsgrube,8.388851,49.524991,241307,Bonifatiuskirche,8.48842,49.49899
2016-10-19T11:18:00,261201,Altrheinstraße,8.471178,49.525371,217106,"Oppau Gemeindehaus",8.403949,49.521716
2016-10-19T11:19:00,302806,"Technoseum Süd",8.493521,49.476018,132602,Schweizertalstr.,8.753273,49.448227
2016-10-19T11:30:00,680505,Riedstraße,8.378043,49.455501,283306,"Saarburger Ring",8.57549,49.44573
2016-10-19T12:01:00,186305,Lagerhausstraße,8.44942,49.46755,218506,"Brüsseler Ring",8.38438,49.53752
2016-10-19T12:45:00,255701,"Bürstadter Straße",8.453306,49.535219,129502,Hermann-Treiber-Str.,8.651862,49.419827
2016-10-19T13:32:00,130820,Köpfel,8.74316,49.42324,61911,"Edingen Bahnhof",8.614477,49.441542
2016-10-19T14:50:00,330606,Floßwörth,8.499606,49.460003,259312,"Pforzheimer Straße",8.55056,49.47329
2016-10-19T15:21:00,209706,Rhein-Galerie,8.447667,49.484454,116702,"MPI Kernphysik",8.707493,49.388904
2016-10-19T15:38:00,256106,Karl-Schweizer-Park,8.447976,49.548853,235108,Weidenwörth,8.463305,49.518517
2016-10-19T17:17:00,207606,"Große Blies",8.421887,49.472619,640801,Waldweg,8.697839,49.429824
2016-10-19T17:25:00,241002,Carl-Benz-Straße,8.471443,49.499829,13402,"Bad Dürkheim Ost",8.18425,49.46342
2016-10-19T17:35:00,110901,Moselbrunnenweg,8.76067,49.42257,257206,Brockenweg,8.479963,49.557011
2016-10-19T17:36:00,210802,Südwest-Stadion,8.439917,49.47243,300002,Neckarbrücke,8.791773,49.394581
2016-10-19T17:36:00,254302,"Neuhofer Straße",8.525654,49.435512,249606,"Neckarau Marktplatz",8.491798,49.453203
2016-10-19T18:15:00,125502,"Kurpfalzring Süd",8.64084,49.402535,206706,Bgm.-Krafft-Platz,8.450485,49.473261
2016-10-19T19:53:00,244005,Möhlstraße,8.487064,49.474654,281402,"Maxdorf Süd",8.289268,49.476561
2016-10-19T20:54:00,208901,Ludwigstraße,8.448643,49.482905,681006,Heuweg,8.409472,49.473308
2016-10-19T20:58:00,407712,Hohensachsen,8.655305,49.520754,216905,Dammbruchstraße,8.401635,49.523505
2016-10-19T21:31:00,265006,Waldfriedhof,8.49486,49.53586,218605,Heinz-Schifferd.-Str,8.384702,49.506619
2016-10-19T21:54:00,198101,"Pleikartsförster Str",8.662668,49.382585,78805,"FT Kugelfang",8.37669,49.53635
2016-10-19T22:11:00,260005,"Chemnitzer Straße",8.551625,49.511263,69702,"Eppelheim Rathaus",8.629096,49.401611
2016-10-19T22:21:00,216305,Uferstraße,8.374793,49.504479,247702,Werderstraße,8.478234,49.480608
2016-10-19T22:48:00,261401,Erlöserkirche,8.49779,49.52536,269905,Werner-Heisenberg-S.,8.45084,49.528735
2016-10-19T23:13:00,114405,Betriebshof,8.675556,49.407956,127203,Kolbenzeil,8.681573,49.37381
2016-10-19T23:18:00,248805,Freiheitsplatz,8.479514,49.45958,118102,Peterskirche,8.705365,49.409044
2016-10-20T01:34:00,124802,"Ziegelh. Friedhof",8.760851,49.419649,554702,"Käfertal Bahnhof",8.518556,49.510136
2016-10-20T01:46:00,145401,"S-Bf Pfaffeng./Wbl.",8.641262,49.412122,255905,Füllenweg,8.448643,49.562158
2016-10-20T03:15:00,255505,Bartholomäuskirche,8.446834,49.545651,256705,Sandhofen,8.449787,49.541715
2016-10-20T03:49:00,264602,Stollenwörth,8.471935,49.450599,244305,Mühldorferstraße,8.488142,49.477153
2016-10-20T03:56:00,113102,Otto-Hahn-Str.,8.70476,49.36602,231701,"Feudenheim Kirche",8.530683,49.486538
2016-10-20T04:23:00,235911,Boveristraße,8.501902,49.505104,413611,Stahlbad,8.649248,49.545129
2016-10-20T04:32:00,554302,Theresienkrankenhaus,8.48108,49.4902,555305,Schönau,8.474671,49.546822
2016-10-20T06:33:00,111602,Klingenweg,8.764106,49.422606,244206,Moselstraße,8.483479,49.498841
2016-10-20T06:33:00,203502,Rheinfeldstraße,8.424792,49.499477,243211,"Lange Rötterstraße",8.486387,49.495742
2016-10-20T06:45:00,102301,Forstquelle,8.70632,49.38135,204001,Schopenhauerstraße,8.426915,49.496743
2016-10-20T06:53:00,108801,"Im Anger",8.767063,49.411621,231206,"Am Aubuckel",8.519289,49.488504
2016-10-20T07:57:00,231507,Feudenheim,8.53847,49.48407,118702,"Römerkreis Süd",8.68466,49.40476
2016-10-20T08:16:00,232001,Neckarplatt,8.512692,49.488966,221964,"BASF Süd",8.435993,49.493145
2016-10-20T09:10:00,202105,Anglerstraße,8.382927,49.53232,204201,Sternstraße,8.415699,49.495404
2016-10-20T09:28:00,330606,Floßwörth,8.499606,49.460003,127604,"Rohrbach Markt",8.6883,49.380532
2016-10-20T11:18:00,386512,"Viernheim Tivoli",8.565693,49.528292,213405,Hoheneckenstraße,8.426555,49.456669
2016-10-20T11:25:00,211706,"Maudach Gemeindehaus",8.38297,49.45507,261905,"Wetzlarer Winkel",8.489612,49.522523
2016-10-20T13:08:00,280606,Brauerei,8.48985,49.49599,122301,"Alte Brücke Nord",8.709199,49.415282
2016-10-20T13:54:00,260505,"Straßenheimer Weg",8.555981,49.511512,206105,"Edigheim Friedhof",8.394123,49.530339
2016-10-20T14:21:00,243102,Landwehrstraße,8.49032,49.50576,158111,"Großsachsen Bahnhof",8.656707,49.514037
2016-10-20T14:27:00,120502,G.-Mendel-Realschule,8.666596,49.386896,217006,Frankenstraße,8.403644,49.515183
2016-10-20T14:35:00,251305,Teufelsloch,8.501396,49.472873,262606,"Waldhof Nord",8.48111,49.5325
2016-10-20T15:20:00,259450,"Seckenheim Rathaus",8.563188,49.467029,245804,Rheinstraße,8.457928,49.490984
2016-10-20T17:17:00,121903,"Kirchheim Rathaus",8.664664,49.377103,249201,Isarweg,8.502564,49.449387
2016-10-20T17:59:00,112901,Jaspersstr.,8.703271,49.361005,203502,Rheinfeldstraße,8.424792,49.499477
2016-10-20T18:45:00,265005,Waldfriedhof,8.49497,49.53582,120502,G.-Mendel-Realschule,8.666596,49.386896
2016-10-20T20:54:00,217005,Frankenstraße,8.403498,49.515126,209606,"LU Rathaus",8.441094,49.484142
2016-10-20T22:18:00,129802,E.-v.-Thadden-Platz,8.649167,49.423978,264511,"Wallstadt West",8.543849,49.500533
2016-10-20T22:45:00,554205,Kunsthalle,8.472262,49.482348,122701,Olympiastützpunkt,8.658391,49.422452
2016-10-20T22:46:00,203505,Rheinfeldstraße,8.424579,49.500049,262505,Neueichwaldstraße,8.500109,49.530279
2016-10-20T22:47:00,554702,"Käfertal Bahnhof",8.518556,49.510136,130601,Waldorfschule,8.633779,49.438327
2016-10-20T22:52:00,255302,Waldseestraße,8.5288,49.431534,114901,Rudolf-Diesel-Str.,8.677795,49.395987
2016-10-20T23:20:00,408512,"Lützels. Pilgerhaus",8.658551,49.533272,234445,Max-Planck-Straße,8.45688,49.51921
2016-10-20T23:40:00,239205,Sporwörthplatz,8.518898,49.442819,555701,Blücherstraße,8.527329,49.487379
2016-10-20T23:53:00,284905,Heinrich-Halfen-Str.,8.380771,49.507628,116661,"S-Bf Altstadt",8.720174,49.41509
2016-10-21T00:09:00,554722,"Käfertal Bahnhof",8.518572,49.510057,239906,Bonadiesstraße,8.45008,49.50467
2016-10-21T00:51:00,257106,"Rastenburger Straße",8.468393,49.550792,133701,"Chirurgische Klinik",8.6738,49.4137
2016-10-21T01:09:00,130201,"Wieblingen Mitte",8.645737,49.423642,124002,Schwimmbad,8.659323,49.420361
2016-10-21T01:54:00,429701,Wilhelmshöhe,8.758263,49.468174,251805,Hans-Thoma-Straße,8.524343,49.475221
2016-10-21T02:06:00,209506,Raschig,8.439649,49.465974,204407,Hochfeldstraße,8.408555,49.465882
2016-10-21T03:30:00,231605,Hölderlinstraße,8.52965,49.496295,204201,Sternstraße,8.415699,49.495404
2016-10-21T04:22:00,255506,Bartholomäuskirche,8.446708,49.546042,262905,Waldpforte,8.49674,49.537981
2016-10-21T04:44:00,204002,Schopenhauerstraße,8.426857,49.497025,247601,Weberstraße,8.486068,49.476475
2016-10-21T05:02:00,256701,Sandhofen,8.449414,49.542136,216305,Uferstraße,8.374793,49.504479
2016-10-21T05:27:00,131902,Löwen,8.75371,49.444105,61920,"Edingen Bahnhof",8.615359,49.442237
2016-10-21T05:31:00,61606,"Edingen Ost",8.617546,49.444668,203502,Rheinfeldstraße,8.424792,49.499477
2016-10-21T06:05:00,205108,Schlesierstraße,8.40519,49.45203,410512,Blumenstraße,8.638593,49.544466
2016-10-21T06:26:00,269905,Werner-Heisenberg-S.,8.45084,49.528735,243906,Max-Joseph-Straße,8.476297,49.4997
2016-10-21T08:21:00,253906,Martinistraße,8.52677,49.443144,115201,"Czernybrücke Süd",8.668392,49.405191
2016-10-21T10:22:00,243812,Marktplatz,8.468009,49.489604,344501,Lindenbach,8.806615,49.420508
2016-10-21T10:23:00,217306,Kirchenstraße,8.398479,49.520014,385111,"Viernheim Bahnhof",8.5825,49.53534
2016-10-21T11:00:00,210201,"Friesenheim Mitte",8.419459,49.49785,685606,Eastsite,8.505948,49.475432
2016-10-21T11:02:00,221806,Bliesstraße,8.422357,49.479226,236305,Habichtplatz,8.508319,49.512981
2016-10-21T11:08:00,555905,Hofrat-Wild-Straße,8.521729,49.450749,134902,Schulbergweg,8.7636,49.41854
2016-10-21T11:12:00,237602,"Käfertal Süd",8.505361,49.506904,210806,Südwest-Stadion,8.439684,49.472124
2016-10-21T12:23:00,679502,Messplatz,8.67549,49.39122,231205,"Am Aubuckel",8.518142,49.488583
2016-10-21T13:28:00,112901,Jaspersstr.,8.703271,49.361005,261706,Eschenhof,8.504585,49.535461
2016-10-21T13:36:00,121101,"Königsberger Str.",8.666023,49.384281,385311,"Viernheim Ost",8.589402,49.537459
2016-10-21T14:17:00,112601,Louise-Ebert-Zentrum,8.703735,49.373004,231505,Feudenheim,8.53782,49.48411
2016-10-21T16:26:00,246402,Pfeifferswörth,8.501694,49.489403,131802,"Langer Kirschbaum",8.751243,49.459075
2016-10-21T16:51:00,131002,"Grüner Baum",8.751988,49.437555,113901,"Alte Brücke",8.708735,49.413449
2016-10-21T17:11:00,245805,Rheinstraße,8.459621,49.491228,106201,Gutleuthofhang,8.766642,49.412816
2016-10-21T18:02:00,133701,"Chirurgische Klinik",8.6738,49.4137,257906,Sachsenstraße,8.546428,49.507427
2016-10-21T18:11:00,600506,Akademiestraße,8.45682,49.492495,61605,"Edingen Ost",8.617987,49.444392
2016-10-21T20:44:00,554302,Theresienkrankenhaus,8.48108,49.4902,281001,Maxdorf,8.293566,49.480106
2016-10-21T20:48:00,127502,"Rastatter Str.",8.678691,49.373966,249701,Markuskirche,8.475596,49.464621
2016-10-21T21:01:00,130901,Fürstendamm,8.749533,49.42863,256701,Sandhofen,8.449414,49.542136
2016-10-21T21:26:00,243211,"Lange Rötterstraße",8.486387,49.495742,555905,Hofrat-Wild-Straße,8.521729,49.450749
2016-10-21T21:44:00,220605,Baustraße,8.336283,49.475359,215401,Hans-Warsch-Platz,8.376508,49.492531
2016-10-21T21:56:00,348212,"Schriesheim Süd",8.6635,49.463879,215308,Froschlache,8.392777,49.490846
2016-10-21T23:59:00,247005,Ulmenweg,8.49274,49.50709,114504,Bierhelderhof,8.70504,49.39029
2016-10-22T00:50:00,209706,Rhein-Galerie,8.447667,49.484454,285935,Parkinsel,8.45176,49.46618
2016-10-22T01:43:00,114104,Bergfriedhof,8.689928,49.395443,259406,"Seckenheim Rathaus",8.56367,49.4668
2016-10-22T02:18:00,253905,Martinistraße,8.527095,49.443263,257306,"Graudenzer Linie",8.481061,49.539378
2016-10-22T02:48:00,214202,Wollstraße,8.39706,49.48583,213901,"Mundenheim Nord",8.432127,49.465857
2016-10-22T04:14:00,554803,"Alte Feuerwache",8.47379,49.49612,117702,Nansenstr.,8.686187,49.389952
2016-10-22T04:47:00,231202,"Am Aubuckel",8.51933,49.488511,130221,"Wieblingen Mitte",8.645849,49.423843
2016-10-22T05:17:00,126801,Haberstr.,8.682777,49.365091,203702,Rottstückerweg,8.415464,49.502925
2016-10-22T07:48:00,216206,"Speyerer Straße",8.36714,49.482089,248505,"Sandhofen Rathaus",8.443168,49.545011
2016-10-22T08:07:00,256402,Krappmühlstraße,8.481307,49.475312,680905,Berufsbildungszentr.,8.407648,49.475707
2016-10-22T08:37:00,109101,"Bärenbach Süd",8.77545,49.41345,210905,Val.-Bauer-Siedlung,8.4253,49.47877
2016-10-22T09:25:00,263906,"Wallstadt Sportanl.",8.542474,49.500639,253202,"Mülheimer Straße",8.531716,49.427847
2016-10-22T09:37:00,120702,"Kirchheim Friedhof",8.659324,49.375877,241304,Bonifatiuskirche,8.48851,49.49937
2016-10-22T09:54:00,262105,Freyaplatz,8.4931,49.52973,264005,"Wallstadt Wasserturm",8.544324,49.499258
2016-10-22T12:00:00,212606,Friedenspark,8.437397,49.484419,208901,Ludwigstraße,8.448643,49.482905
2016-10-22T12:25:00,269105,"Wallstadt Friedhof",8.55268,49.500523,272902,Jugendverkehrsschule,8.49349,49.51179
2016-10-22T13:52:00,249202,Isarweg,8.503181,49.449107,244902,"Neuer Meßplatz",8.470001,49.505361
2016-10-22T15:05:00,214506,Niederfeld,8.401605,49.475494,238601,Luzenberg,8.47573,49.516102
2016-10-22T15:15:00,216602,"Zum Guten Hirten",8.386845,49.488341,327805,"Luzenberg Ost",8.477851,49.516867
2016-10-22T16:04:00,210401,Schützenstraße,8.448925,49.477443,554502,"Mannheimer Straße",8.513278,49.508009
2016-10-22T16:06:00,131401,Heidebuckelweg,8.754478,49.450535,128401,"S-Bf Orthopädie",8.77493,49.41033
2016-10-22T16:46:00,555402,"Schönau Siedlung",8.47346,49.53988,117702,Nansenstr.,8.686187,49.389952
2016-10-22T17:06:00,242105,Herzogenriedstraße,8.471555,49.508458,262205,"Glücksburger Weg",8.4853,49.536104
2016-10-22T17:49:00,120801,Hagellachstr.,8.672647,49.378274,600405,"Mensaam Schloss",8.4592,49.48657
2016-10-22T18:14:00,240106,Kunstverein,8.487515,49.479588,218905,"Rheingönheim Bahnhof",8.40941,49.44679
2016-10-22T18:50:00,241002,Carl-Benz-Straße,8.471443,49.499829,235106,Weidenwörth,8.463005,49.517851
2016-10-22T19:30:00,429302,"Wilhelmsfeld Rathaus",8.760736,49.465725,554305,Theresienkrankenhaus,8.480683,49.490029
2016-10-22T19:46:00,237606,"Käfertal Süd",8.505925,49.5072,679503,Messplatz,8.675351,49.391523
2016-10-22T20:26:00,348211,"Schriesheim Süd",8.663671,49.463254,202305,Deichstraße,8.386383,49.529381
2016-10-22T20:34:00,62907,"Neu-Ed. Gewerbegeb.",8.592709,49.454261,225802,Fahrlach,8.498913,49.473231
2016-10-22T21:09:00,214202,Wollstraße,8.39706,49.48583,216205,"Speyerer Straße",8.367197,49.482176
2016-10-22T21:14:00,221805,Bliesstraße,8.42266,49.479409,679501,Messplatz,8.675377,49.390931
2016-10-22T21:41:00,259450,"Seckenheim Rathaus",8.563188,49.467029,210101,Rottstraße,8.448263,49.474054
2016-10-22T22:37:00,233905,Einsteinstraße,8.459787,49.519372,115802,Gneisenaustr.,8.667713,49.408531
2016-10-22T22:50:00,264512,"Wallstadt West",8.544402,49.500258,255606,"Blumenauer Weg",8.448225,49.555514
2016-10-22T22:56:00,555006,Neumarkt,8.467345,49.498925,204001,Schopenhauerstraße,8.426915,49.496743
2016-10-22T23:30:00,119901,Volkshochschule,8.68044,49.40787,122701,Olympiastützpunkt,8.658391,49.422452
2016-10-23T00:37:00,243705,Zielstraße,8.50002,49.50577,124702,"Im Buschgewann",8.648679,49.397416
2016-10-23T00:38:00,259706,Suebenheim,8.570057,49.45483,617301,Kompostwerk,8.639923,49.435867
2016-10-23T01:13:00,245102,Paradeplatz,8.465612,49.487078,214202,Wollstraße,8.39706,49.48583
2016-10-23T01:14:00,256912,Collini-Center,8.478036,49.491429,210905,Val.-Bauer-Siedlung,8.4253,49.47877
2016-10-23T01:24:00,385120,"Viernheim Bahnhof",8.58208,49.53504,555305,Schönau,8.474671,49.546822
2016-10-23T02:26:00,408412,"Lützelsachsen Bergs.",8.657345,49.527175,243806,Marktplatz,8.467956,49.489699
2016-10-23T03:15:00,210007,Rohrlachstraße,8.43091,49.483095,239606,Jakobuskirche,8.453387,49.543839
2016-10-23T03:18:00,127402,"Ortenauer Str.",8.68779,49.376861,600605,Popakademie,8.45745,49.49633
2016-10-23T03:53:00,249606,"Neckarau Marktplatz",8.491798,49.453203,300102,Bildungszentrum,8.8059,49.38412
2016-10-23T04:24:00,130101,Maltesergasse,8.645727,49.428919,235108,Weidenwörth,8.463305,49.518517
2016-10-23T06:17:00,252606,Chiemseestraße,8.534074,49.417112,250705,"Neckarau West",8.481988,49.455165
2016-10-23T06:20:00,126202,"Baden-Badener Straße",8.682425,49.376722,231102,Adolf-Damaschke-Ring,8.520984,49.493641
2016-10-23T06:45:00,248905,Helmertstraße,8.513884,49.454212,239205,Sporwörthplatz,8.518898,49.442819
2016-10-23T07:06:00,204407,Hochfeldstraße,8.408555,49.465882,250720,"Neckarau West",8.482298,49.455672
2016-10-23T07:55:00,117401,Marstallstr.,8.7057,49.41329,244706,Abendakademie,8.470052,49.491827
2016-10-23T08:18:00,244607,"Neckarstadt West",8.459882,49.502838,237605,"Käfertal Süd",8.506152,49.507329
2016-10-23T09:16:00,204205,Sternstraße,8.414716,49.495684,241307,Bonifatiuskirche,8.48842,49.49899
2016-10-23T10:30:00,69701,"Eppelheim Rathaus",8.62883,49.401666,127002,"Im Breitspiel",8.686886,49.365309
2016-10-23T12:27:00,261105,Alsenweg,8.48357,49.532072,252205,Neuostheim,8.52254,49.477548
2016-10-23T12:39:00,243506,Lortzingstraße,8.467726,49.497328,207906,"LU Klinikum",8.422695,49.490463
2016-10-23T12:51:00,254302,"Neuhofer Straße",8.525654,49.435512,62912,"Neu-Ed. Gewerbegeb.",8.591156,49.454317
2016-10-23T13:55:00,133202,Augustinum,8.703578,49.362937,555302,Schönau,8.47426,49.54725
2016-10-23T14:01:00,712505,Großparthweiher,8.383506,49.498502,215506,Hollergärten,8.384702,49.489966
2016-10-23T14:37:00,232706,Elsa-Brändström-Str.,8.5656,49.4502,714012,"Großsachsen Süd",8.65596,49.509324
2016-10-23T16:31:00,239906,Bonadiesstraße,8.45008,49.50467,640501,Bachlenz,8.687966,49.430226
2016-10-23T16:42:00,237305,Käfertalschule,8.51488,49.51456,132301,Neckarschule,8.756981,49.419401
2016-10-23T17:33:00,254006,Martinskirche,8.527175,49.417712,554403,Universitätsklinikum,8.484508,49.493803
2016-10-23T17:42:00,260105,"Im Wohlbühl",8.529864,49.509045,252606,Chiemseestraße,8.534074,49.417112
2016-10-23T18:02:00,301206,Apostelkirche,8.432388,49.487471,265006,Waldfriedhof,8.49486,49.53586
2016-10-23T18:17:00,116902,"Kohlhof Fachklinik",8.735452,49.389549,240106,Kunstverein,8.487515,49.479588
2016-10-23T18:48:00,218905,"Rheingönheim Bahnhof",8.40941,49.44679,260908,"Vogelstang West",8.53328,49.50582
2016-10-23T19:23:00,208606,Kaiser-Wilhelm-Str.,8.44895,49.481669,239402,Tannhäuserring,8.476979,49.452186
2016-10-23T20:18:00,429002,"Wilhelmsf. Autohalle",8.76344,49.463062,254495,"Rheinau Karlsplatz",8.522798,49.438967
2016-10-23T20:19:00,238610,Luzenberg,8.47587,49.51646,133012,"Gneisenaustraße Süd",8.66725,49.406598
2016-10-23T22:06:00,126401,Englerstr.,8.682337,49.36696,261402,Erlöserkirche,8.4957,49.52617
2016-10-23T23:07:00,217602,"Oppau Süd",8.40783,49.51245,232405,Talstraße,8.524788,49.495239
2016-10-23T23:43:00,129602,"Käfertaler Str.",8.644773,49.430254,273405,Robert-Lauth-Straße,8.383115,49.509202
2016-10-24T02:14:00,235505,"Äußere Wingertstraße",8.51149,49.51646,232406,Talstraße,8.524839,49.495178
2016-10-24T03:13:00,114606,Bismarckplatz,8.6933,49.40967,110603,Schleifengrundweg,8.75787,49.42393
2016-10-24T03:17:00,122402,Bergstr.,8.69375,49.413849,217106,"Oppau Gemeindehaus",8.403949,49.521716
2016-10-24T10:22:00,144404,"Hkrz Marktplatz",8.79683,49.484811,126704,"Freiburger Str.",8.686339,49.374008
2016-10-24T10:43:00,122901,Jahnstr.,8.676648,49.412797,260805,"real Vogelstang",8.55558,49.52058
2016-10-24T12:10:00,680805,"Karlsbader Straße",8.40402,49.47703,248802,Freiheitsplatz,8.479705,49.459056
2016-10-24T12:30:00,116602,"S-Bf Altstadt",8.719908,49.415045,217005,Frankenstraße,8.403498,49.515126
2016-10-24T13:13:00,233806,Dürstelschlag,8.452373,49.510797,132002,"Mittlerer Rainweg",8.746591,49.426134
2016-10-24T13:24:00,207505,Goerdelerplatz,8.431068,49.490161,243102,Landwehrstraße,8.49032,49.50576
2016-10-24T14:46:00,209806,"Bayreuther Straße",8.419753,49.477777,238610,Luzenberg,8.47587,49.51646
2016-10-24T17:09:00,752106,"Rheinallee Süd",8.45561,49.47463,265406,"Rastatter Straße",8.553991,49.466779
2016-10-24T18:21:00,679503,Messplatz,8.675351,49.391523,206105,"Edigheim Friedhof",8.394123,49.530339
2016-10-24T18:54:00,115902,Hans-Böckler-Str.,8.692703,49.405515,203508,Rheinfeldstraße,8.421765,49.49976
2016-10-24T20:46:00,220606,Baustraße,8.336219,49.475487,216106,Rosenwörthstraße,8.37482,49.49687
2016-10-24T21:20:00,255301,Waldseestraße,8.528454,49.431997,109401,HITS,8.73677,49.41506
2016-10-24T22:31:00,236005,Thomashaus,8.506724,49.466404,114408,Betriebshof,8.674817,49.407483
2016-10-24T23:54:00,344701,Marktplatz,8.809844,49.437077,122804,Bunsengymnasium,8.676752,49.417035
2016-10-25T00:32:00,203706,Rottstückerweg,8.41598,49.502671,385111,"Viernheim Bahnhof",8.5825,49.53534
2016-10-25T01:41:00,284905,Heinrich-Halfen-Str.,8.380771,49.507628,256402,Krappmühlstraße,8.481307,49.475312
2016-10-25T01:42:00,203106,"Friesenheim Ost",8.421495,49.501392,133201,Augustinum,8.703482,49.362895
2016-10-25T02:15:00,114302,Bethanienkrankenhaus,8.690218,49.392596,144901,"Schönauer Str.",8.76545,49.41755
2016-10-25T02:37:00,246205,Schloss,8.462137,49.484659,217906,Ostringplatz,8.389915,49.532613
2016-10-25T02:48:00,62901,"Neu-Ed. Gewerbegeb.",8.591368,49.454268,117501,"MPI Astronomie",8.72374,49.39649
2016-10-25T03:10:00,252212,Neuostheim,8.52333,49.477471,587602,"Vorderheubach Höhe",8.777667,49.488462
2016-10-25T04:31:00,253005,Hallenweg,8.535053,49.448886,258105,M.-Winterhalter-Ring,8.481247,49.551121
2016-10-25T05:06:00,231505,Feudenheim,8.53782,49.48411,680906,Berufsbildungszentr.,8.407592,49.475834
2016-10-25T05:24:00,113512,Kapellenweg,8.68637,49.42505,51602,"Dossenheim Süd",8.674996,49.446053
2016-10-25T05:24:00,429001,"Wilhelmsf. Autohalle",8.763424,49.463112,246905,TÜV,8.50437,49.498
2016-10-25T05:51:00,245405,Bäckerweg,8.507356,49.505025,209302,Pfalzbau,8.44544,49.480024
2016-10-25T06:56:00,237405,Sonnenschein,8.505328,49.521977,260305,"Potsdamer Weg",8.531318,49.510239
2016-10-25T07:23:00,587101,Gewerbegebiet,8.808979,49.426591,113211,Biethsstr.,8.68252,49.42987
2016-10-25T08:37:00,231306,Andreas-Hofer-Straße,8.525368,49.490476,246905,TÜV,8.50437,49.498
2016-10-25T08:57:00,209606,"LU Rathaus",8.441094,49.484142,118602,"Rohrbacher Grenzweg",8.697096,49.396125
2016-10-25T12:53:00,125302,"Im Wellengewann",8.640712,49.409557,253706,Lüderitzstraße,8.534963,49.419147
2016-10-25T14:21:00,251912,Lucas-Cranach-Straße,8.512939,49.478482,232402,Talstraße,8.525015,49.495341
2016-10-25T14:35:00,250012,Windeckstraße,8.468792,49.473892,414614,"Weinheim Alt. OEG-Bf",8.664895,49.548651
2016-10-25T15:06:00,214106,Schillerschule,8.42772,49.459721,212305,"Maudacher Bruch",8.398117,49.456808
2016-10-25T15:20:00,132102,Mühldamm,8.751545,49.425364,261706,Eschenhof,8.504585,49.535461
2016-10-25T16:31:00,204305,Abteistraße,8.40713,49.46826,262606,"Waldhof Nord",8.48111,49.5325
2016-10-25T16:47:00,554707,"Käfertal Bahnhof",8.51818,49.50982,258305,"Freiberger Ring",8.540666,49.50929
2016-10-25T17:02:00,554206,Kunsthalle,8.472809,49.482326,234446,Max-Planck-Straße,8.45699,49.51908
2016-10-25T17:23:00,204201,Sternstraße,8.415699,49.495404,213901,"Mundenheim Nord",8.432127,49.465857
2016-10-25T17:50:00,247111,Universität,8.465374,49.482671,256402,Krappmühlstraße,8.481307,49.475312
2016-10-25T18:22:00,211705,"Maudach Gemeindehaus",8.38304,49.45524,145502,Steigerweg,8.69491,49.39694
2016-10-25T18:30:00,254302,"Neuhofer Straße",8.525654,49.435512,263905,"Wallstadt Sportanl.",8.542214,49.500795
2016-10-25T18:32:00,232705,Elsa-Brändström-Str.,8.56537,49.45021,247001,Ulmenweg,8.49301,49.50739
2016-10-25T20:43:00,126702,"Freiburger Str.",8.688077,49.373726,122901,Jahnstr.,8.676648,49.412797
2016-10-25T20:50:00,261602,Roche,8.468683,49.528692,119412,Stadtwerke,8.682359,49.405027
2016-10-25T22:37:00,221964,"BASF Süd",8.435993,49.493145,246611,Tattersall,8.47272,49.48193
2016-10-26T02:17:00,554305,Theresienkrankenhaus,8.480683,49.490029,202505,"Im Zinkig",8.385986,49.524595
2016-10-26T04:25:00,554722,"Käfertal Bahnhof",8.518572,49.510057,241801,"MA Hauptfriedhof",8.49114,49.490969
2016-10-26T06:00:00,604106,"MA Rathaus/REM",8.463582,49.489551,221806,Bliesstraße,8.422357,49.479226
2016-10-26T07:29:00,389405,"SAP Arena S-Bahnhof",8.51642,49.460299,263512,"Wallstadt Bahnhof",8.549386,49.498484
2016-10-26T07:31:00,219201,Friedensstraße,8.424156,49.449155,213201,Giulini,8.425452,49.453492
2016-10-26T09:15:00,258805,Hochstätt,8.539355,49.453211,235505,"Äußere Wingertstraße",8.51149,49.51646
2016-10-26T09:53:00,429302,"Wilhelmsfeld Rathaus",8.760736,49.465725,124102,"Sportzentrum Nord",8.660642,49.426469
2016-10-26T10:57:00,236711,"Platz der Freundsch.",8.538109,49.518339,115105,Czernybrücke,8.671459,49.406127
2016-10-26T12:08:00,554505,"Mannheimer Straße",8.51283,49.508398,232905,"Mülhauser Straße",8.578117,49.438131
2016-10-26T13:59:00,679401,Montpellierbrücke,8.678343,49.400546,261205,Altrheinstraße,8.471097,49.525699
2016-10-26T16:13:00,208007,"LU Hauptbahnhof",8.435214,49.479496,109301,Gutleuthofweg,8.76423,49.414296
2016-10-26T16:41:00,206005,BASF,8.43091,49.49473,281401,"Maxdorf Süd",8.289276,49.476377
2016-10-26T19:12:00,115702,Fr.-Ebert-Platz,8.698582,49.408381,61901,"Edingen Bahnhof",8.614651,49.441523
2016-10-26T20:01:00,125802,Schützenstr.,8.648076,49.399334,239402,Tannhäuserring,8.476979,49.452186
2016-10-26T20:18:00,169312,"HD Fachhochschule",8.649425,49.415157,112701,"Emmertsgrund Endst.",8.703837,49.359335
2016-10-26T20:43:00,554408,Universitätsklinikum,8.48454,49.49357,208901,Ludwigstraße,8.448643,49.482905
2016-10-26T23:11:00,219201,Friedensstraße,8.424156,49.449155,118101,Peterskirche,8.705417,49.408916
2016-10-27T00:48:00,158111,"Großsachsen Bahnhof",8.656707,49.514037,244412,Nationaltheater,8.478459,49.487705
2016-10-27T00:48:00,144502,Schafhof,8.786912,49.486066,261401,Erlöserkirche,8.49779,49.52536
2016-10-27T01:38:00,246706,Teufelsbrücke,8.457072,49.49403,120801,Hagellachstr.,8.672647,49.378274
2016-10-27T03:00:00,244901,"Neuer Meßplatz",8.469981,49.504885,113312,Burgstr.,8.68202,49.43497
2016-10-27T03:22:00,247111,Universität,8.465374,49.482671,214407,Damaschkestraße,8.4043,49.47134
2016-10-27T04:17:00,203508,Rheinfeldstraße,8.421765,49.49976,123311,Kußmaulstr.,8.690765,49.418537
2016-10-27T04:22:00,558806,Karl-Feuerstein-Str.,8.487442,49.522278,260805,"real Vogelstang",8.55558,49.52058
2016-10-27T05:34:00,237505,"Käfertaler Wald",8.50945,49.5295,408512,"Lützels. Pilgerhaus",8.658551,49.533272
2016-10-27T05:54:00,242602,Konrad-Adenauer-Br.,8.458577,49.482392,110702,Hirtenbrunnenweg,8.756378,49.422599
2016-10-27T06:23:00,112001,"Am Götzenberg",8.701572,49.372086,204409,Hochfeldstraße,8.407747,49.465483
2016-10-27T06:25:00,238603,Luzenberg,8.475233,49.515999,264512,"Wallstadt West",8.544402,49.500258
2016-10-27T07:13:00,205107,Schlesierstraße,8.405147,49.451956,215506,Hollergärten,8.384702,49.489966
2016-10-27T07:54:00,232406,Talstraße,8.524839,49.495178,130412,"Wiebl. Taubenfeld",8.642799,49.428327
2016-10-27T08:04:00,641101,Mühltalstr.,8.69783,49.43099,187901,"Leimen Friedhof",8.69311,49.34345
2016-10-27T08:29:00,244005,Möhlstraße,8.487064,49.474654,260406,"Schweriner Weg",8.534868,49.506992
2016-10-27T09:24:00,238620,Luzenberg,8.475155,49.516455,255301,Waldseestraße,8.528454,49.431997
2016-10-27T09:39:00,414621,"Weinheim Alt. OEG-Bf",8.665147,49.549111,256912,Collini-Center,8.478036,49.491429
2016-10-27T10:46:00,113603,Hans-Thoma-Platz,8.68305,49.427369,554702,"Käfertal Bahnhof",8.518556,49.510136
2016-10-27T11:22:00,555520,Eugen-Neter-Schule,8.492711,49.56596,238607,Luzenberg,8.47577,49.51649
2016-10-27T12:42:00,302406,Husarenweg,8.500091,49.468843,253202,"Mülheimer Straße",8.531716,49.427847
2016-10-27T13:06:00,260911,"Vogelstang West",8.53113,49.50656,554722,"Käfertal Bahnhof",8.518572,49.510057
2016-10-27T13:54:00,209305,Pfalzbau,8.445587,49.480044,231701,"Feudenheim Kirche",8.530683,49.486538
2016-10-27T15:22:00,285906,Parkinsel,8.451795,49.466177,121903,"Kirchheim Rathaus",8.664664,49.377103
2016-10-27T15:47:00,116301,Kaiserstr.,8.691633,49.402565,107901,"Im Hofert",8.768975,49.412051
2016-10-27T17:34:00,217906,Ostringplatz,8.389915,49.532613,62005,"Pfälzer Hof",8.609087,49.450846
2016-10-27T17:35:00,554612,"Im Rott",8.527988,49.507693,209405,Fieskostraße,8.37298,49.48944
2016-10-27T17:41:00,129402,"Grenzhöfer Weg",8.644927,49.426487,239802,Bibienastraße,8.48878,49.49455
2016-10-27T18:24:00,115702,Fr.-Ebert-Platz,8.698582,49.408381,253406,Karl-Schwaner-Straße,8.533699,49.419177
2016-10-27T20:04:00,257605,Kerschensteinersch.,8.479818,49.54704,237806,"Wachenheimer Straße",8.508234,49.498164
2016-10-27T21:15:00,256701,Sandhofen,8.449414,49.542136,207401,Gartenstraße,8.441346,49.488665
2016-10-27T21:45:00,680706,Wasserwerk,8.364096,49.473646,130411,"Wiebl. Taubenfeld",8.642431,49.428779
2016-10-27T21:52:00,62506,"Neckarhausen Ost",8.606452,49.45888,124702,"Im Buschgewann",8.648679,49.397416
2016-10-27T22:49:00,680606,"Am Sandloch",8.40867,49.44805,302620,Gerd-Dehof-Platz,8.508166,49.465608
2016-10-27T22:56:00,245803,Rheinstraße,8.458136,49.49089,243405,Gutenbergstraße,8.50406,49.49287
2016-10-27T22:57:00,284905,Heinrich-Halfen-Str.,8.380771,49.507628,248702,Friedrichstraße,8.495519,49.45324
2016-10-27T23:00:00,254402,"Rheinau Karlsplatz",8.52332,49.43856,133202,Augustinum,8.703578,49.362937
2016-10-27T23:42:00,136402,"Peterstaler Str.",8.749092,49.434626,220302,Ruchheim,8.327849,49.478632
2016-10-28T02:45:00,344501,Lindenbach,8.806615,49.420508,600705,Verbindungskanal,8.451679,49.500889
2016-10-28T05:44:00,257905,Sachsenstraße,8.545646,49.507322,246706,Teufelsbrücke,8.457072,49.49403
2016-10-28T06:01:00,119503,Sternwarte,8.72739,49.40067,82901,Lutherstr.,8.69131,49.4172
2016-10-28T06:40:00,204407,Hochfeldstraße,8.408555,49.465882,134001,"Villa Bosch",8.73452,49.41546
2016-10-28T07:15:00,249201,Isarweg,8.502564,49.449387,82405,"FT Altenheim",8.36003,49.53595
2016-10-28T07:17:00,664706,"Burbacher Straße",8.394955,49.489951,212405,Achtmorgenstraße,8.419248,49.466134
2016-10-28T10:12:00,233505,"Fried. Vogesenstraße",8.578997,49.442483,614401,Universitäts-Campus,8.670507,49.413369
2016-10-28T10:56:00,217906,Ostringplatz,8.389915,49.532613,208606,Kaiser-Wilhelm-Str.,8.44895,49.481669
2016-10-28T14:26:00,249605,"Neckarau Marktplatz",8.491998,49.45304,252906,Frobeniusstraße,8.537913,49.416767
2016-10-28T15:07:00,144202,"Abzw. Bärsbach",8.772288,49.497947,121101,"Königsberger Str.",8.666023,49.384281
2016-10-28T15:14:00,243102,Landwehrstraße,8.49032,49.50576,125501,"Kurpfalzring Süd",8.640974,49.40272
2016-10-28T15:41:00,121803,Ilse-Krall-Str.,8.673273,49.386564,215205,"Oggersheim Friedhof",8.367368,49.497168
2016-10-28T17:59:00,234206,Kammerschleuse,8.448123,49.507889,130221,"Wieblingen Mitte",8.645849,49.423843
2016-10-28T18:09:00,127605,"Rohrbach Markt",8.687139,49.38056,680906,Berufsbildungszentr.,8.407592,49.475834
2016-10-28T19:43:00,214705,"Am Weidenschlag",8.37592,49.50572,245705,Joseph-Bauer-Haus,8.514121,49.505647
2016-10-28T21:16:00,128801,Carl-Bosch-Museum,8.72918,49.41571,604105,"MA Rathaus/REM",8.462821,49.488982
2016-10-28T21:17:00,206905,Bruchwiesenstraße,8.420092,49.469311,262002,Freilichtbühne,8.49327,49.53392
2016-10-28T22:34:00,214202,Wollstraße,8.39706,49.48583,555305,Schönau,8.474671,49.546822
2016-10-28T23:23:00,248702,Friedrichstraße,8.495519,49.45324,205302,Ammoniakstraße,8.410244,49.505373
2016-10-28T23:43:00,213906,"Mundenheim Nord",8.432754,49.465653,261806,Föhrenweg,8.500046,49.53711
2016-10-29T00:12:00,262002,Freilichtbühne,8.49327,49.53392,204706,"Leininger Straße",8.402572,49.459398
2016-10-29T00:18:00,682701,E.-Hübner-Platz,8.687536,49.428153,118602,"Rohrbacher Grenzweg",8.697096,49.396125
2016-10-29T01:11:00,203101,"Friesenheim Ost",8.421656,49.501428,587602,"Vorderheubach Höhe",8.777667,49.488462
2016-10-29T02:02:00,125802,Schützenstr.,8.648076,49.399334,614502,Kopfklinik,8.66688,49.4192
2016-10-29T02:04:00,233506,"Fried. Vogesenstraße",8.578992,49.442503,129601,"Käfertaler Str.",8.644743,49.430176
2016-10-29T02:26:00,587702,Grillhütte,8.789986,49.488749,132502,Rainweg,8.746769,49.430216
2016-10-29T02:42:00,213902,"Mundenheim Nord",8.43168,49.46553,124302,Zoo,8.663157,49.415327
2016-10-29T02:49:00,213905,"Mundenheim Nord",8.432629,49.465913,121803,Ilse-Krall-Str.,8.673273,49.386564
2016-10-29T03:29:00,249202,Isarweg,8.503181,49.449107,113311,Burgstr.,8.682286,49.434352
2016-10-29T03:35:00,206002,BASF,8.432839,49.494998,243102,Landwehrstraße,8.49032,49.50576
2016-10-29T04:30:00,122903,Jahnstr.,8.675475,49.412857,119102,Kühruhweg,8.708661,49.393837
2016-10-29T05:54:00,91002,Fußgönheim,8.287335,49.466213,110901,Moselbrunnenweg,8.76067,49.42257
2016-10-29T06:00:00,203202,Hagellochstraße,8.416089,49.49914,215805,Notwende,8.37624,49.50901
2016-10-29T06:50:00,236905,"Neues Leben",8.502937,49.51926,603605,"Pfingstberg Sportan.",8.524846,49.449159
2016-10-29T07:45:00,554505,"Mannheimer Straße",8.51283,49.508398,559012,Schafweide,8.479618,49.494477
2016-10-29T07:55:00,246402,Pfeifferswörth,8.501694,49.489403,205302,Ammoniakstraße,8.410244,49.505373
2016-10-29T08:50:00,251006,Fardelystraße,8.45769,49.50383,236202,Speckweg,8.49938,49.52106
2016-10-29T10:17:00,209302,Pfalzbau,8.44544,49.480024,211905,Krappstraße,8.372542,49.455296
2016-10-29T10:18:00,121803,Ilse-Krall-Str.,8.673273,49.386564,127803,"Rohrbach Süd",8.68859,49.36591
2016-10-29T10:26:00,515205,Paul-Münch-Straße,8.327641,49.475565,120101,Alfred-Jost-Str.,8.65904,49.37865
2016-10-29T11:15:00,117501,"MPI Astronomie",8.72374,49.39649,679502,Messplatz,8.67549,49.39122
2016-10-29T11:20:00,680305,Irisstraße,8.371997,49.458982,255705,"Bürstadter Straße",8.453338,49.535491
2016-10-29T13:02:00,600405,"Mensaam Schloss",8.4592,49.48657,250101,Rheingoldhalle,8.469405,49.449923
2016-10-29T13:39:00,259112,"Seckenheim OEG-Bf.",8.569998,49.461836,210102,Rottstraße,8.448253,49.473756
2016-10-29T15:41:00,239905,Bonadiesstraße,8.449964,49.504798,252605,Chiemseestraße,8.53417,49.41716
2016-10-29T15:52:00,127802,"Rohrbach Süd",8.688737,49.365841,225802,Fahrlach,8.498913,49.473231
2016-10-29T16:34:00,256605,Scharhof,8.447929,49.560164,264905,Öllager,8.447084,49.529852
2016-10-29T16:59:00,244412,Nationaltheater,8.478459,49.487705,243405,Gutenbergstraße,8.50406,49.49287
2016-10-29T17:25:00,210402,Schützenstraße,8.448536,49.477076,232505,Ziethenstraße,8.518966,49.49011
2016-10-29T17:47:00,244706,Abendakademie,8.470052,49.491827,111701,Karl-Christ-Str.,8.76094,49.421163
2016-10-29T18:34:00,235405,"Heizkraftwerk Nord",8.454088,49.524065,113401,Jellinekstrasse,8.705279,49.361523
2016-10-29T23:34:00,254705,"Rohrhofer Straße",8.525752,49.420657,247112,Universität,8.465762,49.481539
2016-10-29T23:38:00,233906,Einsteinstraße,8.459836,49.519302,244606,"Neckarstadt West",8.460684,49.503656
2016-10-30T02:36:00,286705,"Rheingönh. Gemeindeh",8.415584,49.444267,259505,Schlittweg,8.543745,49.455891
2016-10-30T02:39:00,126103,Stotz,8.643786,49.402613,62706,"Neckarh. West",8.589802,49.469372
2016-10-30T03:02:00,130001,Finanzamt,8.642509,49.422106,386511,"Viernheim Tivoli",8.564867,49.528109
2016-10-30T03:40:00,344501,Lindenbach,8.806615,49.420508,256720,Sandhofen,8.449376,49.542273
2016-10-30T05:04:00,232502,Ziethenstraße,8.519309,49.49045,285935,Parkinsel,8.45176,49.46618
2016-10-30T05:38:00,131702,Kreuzgrundweg,8.74746,49.431771,207305,Feierabendhaus,8.427923,49.492699
2016-10-30T06:06:00,127820,"Rohrbach Süd",8.68939,49.36581,130820,Köpfel,8.74316,49.42324
2016-10-30T06:08:00,130221,"Wieblingen Mitte",8.645849,49.423843,236711,"Platz der Freundsch.",8.538109,49.518339
2016-10-30T06:52:00,554808,"Alte Feuerwache",8.472299,49.495806,554901,MVV-Hochhaus,8.465591,49.49395
2016-10-30T07:07:00,429302,"Wilhelmsfeld Rathaus",8.760736,49.465725,203906,"Saarbrücker Straße",8.405203,49.492903
2016-10-30T07:25:00,206705,Bgm.-Krafft-Platz,8.450213,49.473151,235506,"Äußere Wingertstraße",8.51188,49.51615
2016-10-30T08:06:00,209606,"LU Rathaus",8.441094,49.484142,232105,Neckarstraße,8.53348,49.484294
2016-10-30T08:12:00,242305,Hombuschstraße,8.460403,49.516022,245101,Paradeplatz,8.466229,49.487676
2016-10-30T08:56:00,132401,"Neuer Weg",8.752939,49.417451,134101,"Rombachweg Süd",8.73838,49.41344
2016-10-30T09:05:00,302401,Husarenweg,8.50244,49.46935,239506,"Am Friedrichsplatz",8.479037,49.482531
2016-10-30T09:46:00,188601,Georgi-Marktplatz,8.68888,49.3492,247601,Weberstraße,8.486068,49.476475
2016-10-30T09:57:00,241806,"MA Hauptfriedhof",8.4908,49.490838,554403,Universitätsklinikum,8.484508,49.493803
2016-10-30T10:13:00,679501,Messplatz,8.675377,49.390931,69602,"Kirchheimer Str.",8.62656,49.39926
2016-10-30T10:17:00,121602,Odenwaldstr.,8.669412,49.379159,62405,"Neckarh. Brücke",8.598642,49.46863
2016-10-30T10:30:00,302406,Husarenweg,8.500091,49.468843,640402,Tiefburg,8.68559,49.42769
2016-10-30T11:03:00,217406,Kurt-Schumacher-Str.,8.39859,49.52584,752205,Drehbrücke,8.452825,49.470355
2016-10-30T11:33:00,131302,"Ziegelhausen Kirche",8.76117,49.417824,256706,Sandhofen,8.4498,49.541665
2016-10-30T15:16:00,259312,"Pforzheimer Straße",8.55056,49.47329,251512,Harrlach,8.506792,49.478247
2016-10-30T15:50:00,125402,Kranichweg,8.640807,49.401928,248802,Freiheitsplatz,8.479705,49.459056
2016-10-30T16:25:00,257906,Sachsenstraße,8.546428,49.507427,225806,Fahrlach,8.498859,49.473411
2016-10-30T17:11:00,256005,Hanfstraße,8.451246,49.538258,425601,"Schwetzinger Terrass",8.67173,49.39933
2016-10-30T17:26:00,115702,Fr.-Ebert-Platz,8.698582,49.408381,554302,Theresienkrankenhaus,8.48108,49.4902
2016-10-30T18:52:00,114002,"Alter Kohlhof",8.731029,49.38835,130201,"Wieblingen Mitte",8.645737,49.423642
2016-10-30T20:10:00,134902,Schulbergweg,8.7636,49.41854,300002,Neckarbrücke,8.791773,49.394581
2016-10-30T20:44:00,208102,"LU Hauptfriedhof",8.423289,49.484079,215405,Hans-Warsch-Platz,8.376127,49.492821
2016-10-30T21:01:00,250405,Strandbad,8.452871,49.447683,116002,"HD Hauptbahnhof",8.675296,49.405114
2016-10-30T21:21:00,231601,Hölderlinstraße,8.52991,49.496471,243211,"Lange Rötterstraße",8.486387,49.495742
2016-10-30T21:42:00,664901,"Westlich B9",8.354283,49.483492,238607,Luzenberg,8.47577,49.51649
2016-10-30T21:47:00,664905,"Westlich B9",8.35317,49.483778,682501,"Am Zapfenberg",8.692581,49.430669
2016-10-30T22:05:00,260911,"Vogelstang West",8.53113,49.50656,254301,"Neuhofer Straße",8.526035,49.435062
2016-10-30T22:57:00,286706,"Rheingönh. Gemeindeh",8.415547,49.444291,242106,Herzogenriedstraße,8.471474,49.508423
2016-10-30T23:56:00,207401,Gartenstraße,8.441346,49.488665,225801,Fahrlach,8.498257,49.473513
2016-10-31T00:41:00,188601,Georgi-Marktplatz,8.68888,49.3492,133702,"Chirurgische Klinik",8.67334,49.41376
2016-10-31T01:42:00,261605,Roche,8.469127,49.528416,236006,Thomashaus,8.506308,49.466557
2016-10-31T01:58:00,252605,Chiemseestraße,8.53417,49.41716,220605,Baustraße,8.336283,49.475359
2016-10-31T02:21:00,246502,Strohmarkt,8.470126,49.48618,115002,Christuskirche,8.685094,49.401812
2016-10-31T02:54:00,214102,Schillerschule,8.427606,49.459735,233506,"Fried. Vogesenstraße",8.578992,49.442503
2016-10-31T03:18:00,145502,Steigerweg,8.69491,49.39694,265006,Waldfriedhof,8.49486,49.53586
2016-10-31T03:48:00,249605,"Neckarau Marktplatz",8.491998,49.45304,242702,Kurpfalzbrücke,8.470124,49.493522
2016-10-31T04:14:00,385312,"Viernheim Ost",8.589774,49.537517,128402,"S-Bf Orthopädie",8.775053,49.410496
2016-10-31T04:33:00,261505,"Waldhof Bahnhof",8.481972,49.525152,122401,Bergstr.,8.694315,49.413745
2016-10-31T04:43:00,240306,Dudenstraße,8.501492,49.500264,119102,Kühruhweg,8.708661,49.393837
2016-10-31T06:22:00,262206,"Glücksburger Weg",8.486268,49.536407,219202,Friedensstraße,8.423947,49.449364
2016-10-31T06:27:00,680505,Riedstraße,8.378043,49.455501,641101,Mühltalstr.,8.69783,49.43099
2016-10-31T06:30:00,239506,"Am Friedrichsplatz",8.479037,49.482531,62906,"Neu-Ed. Gewerbegeb.",8.592638,49.454363
2016-10-31T07:06:00,238705,"Mercedes-Benz Tor 1",8.479751,49.516416,664901,"Westlich B9",8.354283,49.483492
2016-10-31T07:48:00,121901,"Kirchheim Rathaus",8.66477,49.37716,603105,"Innerer Heckweg",8.563189,49.459265
2016-10-31T08:14:00,214106,Schillerschule,8.42772,49.459721,429302,"Wilhelmsfeld Rathaus",8.760736,49.465725
2016-10-31T08:17:00,131701,Kreuzgrundweg,8.747678,49.431677,119202,"St. Vinc.-Krankenhaus",8.697311,49.412085
2016-10-31T09:18:00,210005,Rohrlachstraße,8.42989,49.48254,212005,Maudach,8.367971,49.45618
2016-10-31T09:38:00,255205,"Rheinau Süd",8.540138,49.414618,240106,Kunstverein,8.487515,49.479588
2016-10-31T09:40:00,204706,"Leininger Straße",8.402572,49.459398,429502,"Schriesheimer Hof",8.754297,49.470321
2016-10-31T10:21:00,681005,Heuweg,8.409488,49.473395,217105,"Oppau Gemeindehaus",8.404467,49.521441
